[
  {
    "comune_denominazione": "Alcamo",
    "comune_codice_istat": "081001",
    "latitudine": 37.97665,
    "longitudine": 12.962674,
    "popolazione": 44857,
    "provincia_denominazione": "Trapani",
    "provincia_sigla": "TP",
    "regione_denominazione": "Sicilia",
    "regione_codice": 19
  },
  {
    "comune_denominazione": "Buseto Palizzolo",
    "comune_codice_istat": "081002",
    "latitudine": 38.012506,
    "longitudine": 12.711586,
    "popolazione": 2763,
    "provincia_denominazione": "Trapani",
    "provincia_sigla": "TP",
    "regione_denominazione": "Sicilia",
    "regione_codice": 19
  },
  {
    "comune_denominazione": "Calatafimi-Segesta",
    "comune_codice_istat": "081003",
    "latitudine": 37.913638,
    "longitudine": 12.861893,
    "popolazione": 6288,
    "provincia_denominazione": "Trapani",
    "provincia_sigla": "TP",
    "regione_denominazione": "Sicilia",
    "regione_codice": 19
  },
  {
    "comune_denominazione": "Campobello di Mazara",
    "comune_codice_istat": "081004",
    "latitudine": 37.635838,
    "longitudine": 12.744338,
    "popolazione": 11470,
    "provincia_denominazione": "Trapani",
    "provincia_sigla": "TP",
    "regione_denominazione": "Sicilia",
    "regione_codice": 19
  },
  {
    "comune_denominazione": "Castellammare del Golfo",
    "comune_codice_istat": "081005",
    "latitudine": 38.018846,
    "longitudine": 12.885837,
    "popolazione": 14644,
    "provincia_denominazione": "Trapani",
    "provincia_sigla": "TP",
    "regione_denominazione": "Sicilia",
    "regione_codice": 19
  },
  {
    "comune_denominazione": "Castelvetrano",
    "comune_codice_istat": "081006",
    "latitudine": 37.682851,
    "longitudine": 12.795534,
    "popolazione": 30280,
    "provincia_denominazione": "Trapani",
    "provincia_sigla": "TP",
    "regione_denominazione": "Sicilia",
    "regione_codice": 19
  },
  {
    "comune_denominazione": "Custonaci",
    "comune_codice_istat": "081007",
    "latitudine": 38.078163,
    "longitudine": 12.675229,
    "popolazione": 5357,
    "provincia_denominazione": "Trapani",
    "provincia_sigla": "TP",
    "regione_denominazione": "Sicilia",
    "regione_codice": 19
  },
  {
    "comune_denominazione": "Erice",
    "comune_codice_istat": "081008",
    "latitudine": 38.03823,
    "longitudine": 12.587182,
    "popolazione": 26373,
    "provincia_denominazione": "Trapani",
    "provincia_sigla": "TP",
    "regione_denominazione": "Sicilia",
    "regione_codice": 19
  },
  {
    "comune_denominazione": "Favignana",
    "comune_codice_istat": "081009",
    "latitudine": 37.931402,
    "longitudine": 12.327429,
    "popolazione": 4303,
    "provincia_denominazione": "Trapani",
    "provincia_sigla": "TP",
    "regione_denominazione": "Sicilia",
    "regione_codice": 19
  },
  {
    "comune_denominazione": "Gibellina",
    "comune_codice_istat": "081010",
    "latitudine": 37.807042,
    "longitudine": 12.869539,
    "popolazione": 3876,
    "provincia_denominazione": "Trapani",
    "provincia_sigla": "TP",
    "regione_denominazione": "Sicilia",
    "regione_codice": 19
  },
  {
    "comune_denominazione": "Marsala",
    "comune_codice_istat": "081011",
    "latitudine": 37.797922,
    "longitudine": 12.434209,
    "popolazione": 80369,
    "provincia_denominazione": "Trapani",
    "provincia_sigla": "TP",
    "regione_denominazione": "Sicilia",
    "regione_codice": 19
  },
  {
    "comune_denominazione": "Mazara del Vallo",
    "comune_codice_istat": "081012",
    "latitudine": 37.653729,
    "longitudine": 12.588691,
    "popolazione": 50046,
    "provincia_denominazione": "Trapani",
    "provincia_sigla": "TP",
    "regione_denominazione": "Sicilia",
    "regione_codice": 19
  },
  {
    "comune_denominazione": "Paceco",
    "comune_codice_istat": "081013",
    "latitudine": 37.981297,
    "longitudine": 12.557309,
    "popolazione": 10928,
    "provincia_denominazione": "Trapani",
    "provincia_sigla": "TP",
    "regione_denominazione": "Sicilia",
    "regione_codice": 19
  },
  {
    "comune_denominazione": "Pantelleria",
    "comune_codice_istat": "081014",
    "latitudine": 36.831458,
    "longitudine": 11.94504,
    "popolazione": 7391,
    "provincia_denominazione": "Trapani",
    "provincia_sigla": "TP",
    "regione_denominazione": "Sicilia",
    "regione_codice": 19
  },
  {
    "comune_denominazione": "Partanna",
    "comune_codice_istat": "081015",
    "latitudine": 37.727841,
    "longitudine": 12.88854,
    "popolazione": 10001,
    "provincia_denominazione": "Trapani",
    "provincia_sigla": "TP",
    "regione_denominazione": "Sicilia",
    "regione_codice": 19
  },
  {
    "comune_denominazione": "Poggioreale",
    "comune_codice_istat": "081016",
    "latitudine": 37.762096,
    "longitudine": 13.034318,
    "popolazione": 1397,
    "provincia_denominazione": "Trapani",
    "provincia_sigla": "TP",
    "regione_denominazione": "Sicilia",
    "regione_codice": 19
  },
  {
    "comune_denominazione": "Salaparuta",
    "comune_codice_istat": "081017",
    "latitudine": 37.757942,
    "longitudine": 13.009742,
    "popolazione": 1601,
    "provincia_denominazione": "Trapani",
    "provincia_sigla": "TP",
    "regione_denominazione": "Sicilia",
    "regione_codice": 19
  },
  {
    "comune_denominazione": "Salemi",
    "comune_codice_istat": "081018",
    "latitudine": 37.817371,
    "longitudine": 12.800945,
    "popolazione": 10060,
    "provincia_denominazione": "Trapani",
    "provincia_sigla": "TP",
    "regione_denominazione": "Sicilia",
    "regione_codice": 19
  },
  {
    "comune_denominazione": "Santa Ninfa",
    "comune_codice_istat": "081019",
    "latitudine": 37.771342,
    "longitudine": 12.877639,
    "popolazione": 4875,
    "provincia_denominazione": "Trapani",
    "provincia_sigla": "TP",
    "regione_denominazione": "Sicilia",
    "regione_codice": 19
  },
  {
    "comune_denominazione": "San Vito Lo Capo",
    "comune_codice_istat": "081020",
    "latitudine": 38.172347,
    "longitudine": 12.734932,
    "popolazione": 4807,
    "provincia_denominazione": "Trapani",
    "provincia_sigla": "TP",
    "regione_denominazione": "Sicilia",
    "regione_codice": 19
  },
  {
    "comune_denominazione": "Trapani",
    "comune_codice_istat": "081021",
    "latitudine": 38.017432,
    "longitudine": 12.515992,
    "popolazione": 65249,
    "provincia_denominazione": "Trapani",
    "provincia_sigla": "TP",
    "regione_denominazione": "Sicilia",
    "regione_codice": 19
  },
  {
    "comune_denominazione": "Valderice",
    "comune_codice_istat": "081022",
    "latitudine": 38.038984,
    "longitudine": 12.616979,
    "popolazione": 11553,
    "provincia_denominazione": "Trapani",
    "provincia_sigla": "TP",
    "regione_denominazione": "Sicilia",
    "regione_codice": 19
  },
  {
    "comune_denominazione": "Vita",
    "comune_codice_istat": "081023",
    "latitudine": 37.868575,
    "longitudine": 12.814479,
    "popolazione": 1838,
    "provincia_denominazione": "Trapani",
    "provincia_sigla": "TP",
    "regione_denominazione": "Sicilia",
    "regione_codice": 19
  },
  {
    "comune_denominazione": "Petrosino",
    "comune_codice_istat": "081024",
    "latitudine": 37.71624,
    "longitudine": 12.494547,
    "popolazione": 8037,
    "provincia_denominazione": "Trapani",
    "provincia_sigla": "TP",
    "regione_denominazione": "Sicilia",
    "regione_codice": 19
  },
  {
    "comune_denominazione": "Alia",
    "comune_codice_istat": "082001",
    "latitudine": 37.779948,
    "longitudine": 13.713856,
    "popolazione": 3403,
    "provincia_denominazione": "Palermo",
    "provincia_sigla": "PA",
    "regione_denominazione": "Sicilia",
    "regione_codice": 19
  },
  {
    "comune_denominazione": "Alimena",
    "comune_codice_istat": "082002",
    "latitudine": 37.693476,
    "longitudine": 14.114651,
    "popolazione": 1871,
    "provincia_denominazione": "Palermo",
    "provincia_sigla": "PA",
    "regione_denominazione": "Sicilia",
    "regione_codice": 19
  },
  {
    "comune_denominazione": "Aliminusa",
    "comune_codice_istat": "082003",
    "latitudine": 37.864509,
    "longitudine": 13.78116,
    "popolazione": 1105,
    "provincia_denominazione": "Palermo",
    "provincia_sigla": "PA",
    "regione_denominazione": "Sicilia",
    "regione_codice": 19
  },
  {
    "comune_denominazione": "Altavilla Milicia",
    "comune_codice_istat": "082004",
    "latitudine": 38.042734,
    "longitudine": 13.550893,
    "popolazione": 8452,
    "provincia_denominazione": "Palermo",
    "provincia_sigla": "PA",
    "regione_denominazione": "Sicilia",
    "regione_codice": 19
  },
  {
    "comune_denominazione": "Altofonte",
    "comune_codice_istat": "082005",
    "latitudine": 38.044567,
    "longitudine": 13.298702,
    "popolazione": 9835,
    "provincia_denominazione": "Palermo",
    "provincia_sigla": "PA",
    "regione_denominazione": "Sicilia",
    "regione_codice": 19
  },
  {
    "comune_denominazione": "Bagheria",
    "comune_codice_istat": "082006",
    "latitudine": 38.079351,
    "longitudine": 13.509349,
    "popolazione": 53149,
    "provincia_denominazione": "Palermo",
    "provincia_sigla": "PA",
    "regione_denominazione": "Sicilia",
    "regione_codice": 19
  },
  {
    "comune_denominazione": "Balestrate",
    "comune_codice_istat": "082007",
    "latitudine": 38.051867,
    "longitudine": 13.004266,
    "popolazione": 6316,
    "provincia_denominazione": "Palermo",
    "provincia_sigla": "PA",
    "regione_denominazione": "Sicilia",
    "regione_codice": 19
  },
  {
    "comune_denominazione": "Baucina",
    "comune_codice_istat": "082008",
    "latitudine": 37.925429,
    "longitudine": 13.53771,
    "popolazione": 1875,
    "provincia_denominazione": "Palermo",
    "provincia_sigla": "PA",
    "regione_denominazione": "Sicilia",
    "regione_codice": 19
  },
  {
    "comune_denominazione": "Belmonte Mezzagno",
    "comune_codice_istat": "082009",
    "latitudine": 38.048449,
    "longitudine": 13.390554,
    "popolazione": 11053,
    "provincia_denominazione": "Palermo",
    "provincia_sigla": "PA",
    "regione_denominazione": "Sicilia",
    "regione_codice": 19
  },
  {
    "comune_denominazione": "Bisacquino",
    "comune_codice_istat": "082010",
    "latitudine": 37.705431,
    "longitudine": 13.258761,
    "popolazione": 4227,
    "provincia_denominazione": "Palermo",
    "provincia_sigla": "PA",
    "regione_denominazione": "Sicilia",
    "regione_codice": 19
  },
  {
    "comune_denominazione": "Bolognetta",
    "comune_codice_istat": "082011",
    "latitudine": 37.964742,
    "longitudine": 13.45607,
    "popolazione": 4085,
    "provincia_denominazione": "Palermo",
    "provincia_sigla": "PA",
    "regione_denominazione": "Sicilia",
    "regione_codice": 19
  },
  {
    "comune_denominazione": "Bompietro",
    "comune_codice_istat": "082012",
    "latitudine": 37.746863,
    "longitudine": 14.099838,
    "popolazione": 1266,
    "provincia_denominazione": "Palermo",
    "provincia_sigla": "PA",
    "regione_denominazione": "Sicilia",
    "regione_codice": 19
  },
  {
    "comune_denominazione": "Borgetto",
    "comune_codice_istat": "082013",
    "latitudine": 38.047103,
    "longitudine": 13.142684,
    "popolazione": 7098,
    "provincia_denominazione": "Palermo",
    "provincia_sigla": "PA",
    "regione_denominazione": "Sicilia",
    "regione_codice": 19
  },
  {
    "comune_denominazione": "Caccamo",
    "comune_codice_istat": "082014",
    "latitudine": 37.9318,
    "longitudine": 13.66349,
    "popolazione": 7936,
    "provincia_denominazione": "Palermo",
    "provincia_sigla": "PA",
    "regione_denominazione": "Sicilia",
    "regione_codice": 19
  },
  {
    "comune_denominazione": "Caltavuturo",
    "comune_codice_istat": "082015",
    "latitudine": 37.821066,
    "longitudine": 13.890224,
    "popolazione": 3690,
    "provincia_denominazione": "Palermo",
    "provincia_sigla": "PA",
    "regione_denominazione": "Sicilia",
    "regione_codice": 19
  },
  {
    "comune_denominazione": "Campofelice di Fitalia",
    "comune_codice_istat": "082016",
    "latitudine": 37.826685,
    "longitudine": 13.485936,
    "popolazione": 466,
    "provincia_denominazione": "Palermo",
    "provincia_sigla": "PA",
    "regione_denominazione": "Sicilia",
    "regione_codice": 19
  },
  {
    "comune_denominazione": "Campofelice di Roccella",
    "comune_codice_istat": "082017",
    "latitudine": 37.992334,
    "longitudine": 13.886183,
    "popolazione": 7551,
    "provincia_denominazione": "Palermo",
    "provincia_sigla": "PA",
    "regione_denominazione": "Sicilia",
    "regione_codice": 19
  },
  {
    "comune_denominazione": "Campofiorito",
    "comune_codice_istat": "082018",
    "latitudine": 37.753636,
    "longitudine": 13.268767,
    "popolazione": 1186,
    "provincia_denominazione": "Palermo",
    "provincia_sigla": "PA",
    "regione_denominazione": "Sicilia",
    "regione_codice": 19
  },
  {
    "comune_denominazione": "Camporeale",
    "comune_codice_istat": "082019",
    "latitudine": 37.897145,
    "longitudine": 13.093842,
    "popolazione": 3040,
    "provincia_denominazione": "Palermo",
    "provincia_sigla": "PA",
    "regione_denominazione": "Sicilia",
    "regione_codice": 19
  },
  {
    "comune_denominazione": "Capaci",
    "comune_codice_istat": "082020",
    "latitudine": 38.170718,
    "longitudine": 13.23917,
    "popolazione": 11571,
    "provincia_denominazione": "Palermo",
    "provincia_sigla": "PA",
    "regione_denominazione": "Sicilia",
    "regione_codice": 19
  },
  {
    "comune_denominazione": "Carini",
    "comune_codice_istat": "082021",
    "latitudine": 38.131172,
    "longitudine": 13.181885,
    "popolazione": 38797,
    "provincia_denominazione": "Palermo",
    "provincia_sigla": "PA",
    "regione_denominazione": "Sicilia",
    "regione_codice": 19
  },
  {
    "comune_denominazione": "Castelbuono",
    "comune_codice_istat": "082022",
    "latitudine": 37.931953,
    "longitudine": 14.088562,
    "popolazione": 8359,
    "provincia_denominazione": "Palermo",
    "provincia_sigla": "PA",
    "regione_denominazione": "Sicilia",
    "regione_codice": 19
  },
  {
    "comune_denominazione": "Casteldaccia",
    "comune_codice_istat": "082023",
    "latitudine": 38.054118,
    "longitudine": 13.530226,
    "popolazione": 11543,
    "provincia_denominazione": "Palermo",
    "provincia_sigla": "PA",
    "regione_denominazione": "Sicilia",
    "regione_codice": 19
  },
  {
    "comune_denominazione": "Castellana Sicula",
    "comune_codice_istat": "082024",
    "latitudine": 37.783179,
    "longitudine": 14.041051,
    "popolazione": 3132,
    "provincia_denominazione": "Palermo",
    "provincia_sigla": "PA",
    "regione_denominazione": "Sicilia",
    "regione_codice": 19
  },
  {
    "comune_denominazione": "Castronovo di Sicilia",
    "comune_codice_istat": "082025",
    "latitudine": 37.678945,
    "longitudine": 13.603455,
    "popolazione": 2913,
    "provincia_denominazione": "Palermo",
    "provincia_sigla": "PA",
    "regione_denominazione": "Sicilia",
    "regione_codice": 19
  },
  {
    "comune_denominazione": "Cefalà Diana",
    "comune_codice_istat": "082026",
    "latitudine": 37.915175,
    "longitudine": 13.463549,
    "popolazione": 979,
    "provincia_denominazione": "Palermo",
    "provincia_sigla": "PA",
    "regione_denominazione": "Sicilia",
    "regione_codice": 19
  },
  {
    "comune_denominazione": "Cefalù",
    "comune_codice_istat": "082027",
    "latitudine": 38.034957,
    "longitudine": 14.024456,
    "popolazione": 13994,
    "provincia_denominazione": "Palermo",
    "provincia_sigla": "PA",
    "regione_denominazione": "Sicilia",
    "regione_codice": 19
  },
  {
    "comune_denominazione": "Cerda",
    "comune_codice_istat": "082028",
    "latitudine": 37.903579,
    "longitudine": 13.81547,
    "popolazione": 4971,
    "provincia_denominazione": "Palermo",
    "provincia_sigla": "PA",
    "regione_denominazione": "Sicilia",
    "regione_codice": 19
  },
  {
    "comune_denominazione": "Chiusa Sclafani",
    "comune_codice_istat": "082029",
    "latitudine": 37.67722,
    "longitudine": 13.270521,
    "popolazione": 2639,
    "provincia_denominazione": "Palermo",
    "provincia_sigla": "PA",
    "regione_denominazione": "Sicilia",
    "regione_codice": 19
  },
  {
    "comune_denominazione": "Ciminna",
    "comune_codice_istat": "082030",
    "latitudine": 37.896816,
    "longitudine": 13.562345,
    "popolazione": 3524,
    "provincia_denominazione": "Palermo",
    "provincia_sigla": "PA",
    "regione_denominazione": "Sicilia",
    "regione_codice": 19
  },
  {
    "comune_denominazione": "Cinisi",
    "comune_codice_istat": "082031",
    "latitudine": 38.154943,
    "longitudine": 13.109841,
    "popolazione": 11894,
    "provincia_denominazione": "Palermo",
    "provincia_sigla": "PA",
    "regione_denominazione": "Sicilia",
    "regione_codice": 19
  },
  {
    "comune_denominazione": "Collesano",
    "comune_codice_istat": "082032",
    "latitudine": 37.921477,
    "longitudine": 13.937486,
    "popolazione": 3821,
    "provincia_denominazione": "Palermo",
    "provincia_sigla": "PA",
    "regione_denominazione": "Sicilia",
    "regione_codice": 19
  },
  {
    "comune_denominazione": "Contessa Entellina",
    "comune_codice_istat": "082033",
    "latitudine": 37.73098,
    "longitudine": 13.183144,
    "popolazione": 1555,
    "provincia_denominazione": "Palermo",
    "provincia_sigla": "PA",
    "regione_denominazione": "Sicilia",
    "regione_codice": 19
  },
  {
    "comune_denominazione": "Corleone",
    "comune_codice_istat": "082034",
    "latitudine": 37.812078,
    "longitudine": 13.301438,
    "popolazione": 10694,
    "provincia_denominazione": "Palermo",
    "provincia_sigla": "PA",
    "regione_denominazione": "Sicilia",
    "regione_codice": 19
  },
  {
    "comune_denominazione": "Ficarazzi",
    "comune_codice_istat": "082035",
    "latitudine": 38.088458,
    "longitudine": 13.463786,
    "popolazione": 12763,
    "provincia_denominazione": "Palermo",
    "provincia_sigla": "PA",
    "regione_denominazione": "Sicilia",
    "regione_codice": 19
  },
  {
    "comune_denominazione": "Gangi",
    "comune_codice_istat": "082036",
    "latitudine": 37.795627,
    "longitudine": 14.20672,
    "popolazione": 6358,
    "provincia_denominazione": "Palermo",
    "provincia_sigla": "PA",
    "regione_denominazione": "Sicilia",
    "regione_codice": 19
  },
  {
    "comune_denominazione": "Geraci Siculo",
    "comune_codice_istat": "082037",
    "latitudine": 37.859137,
    "longitudine": 14.154416,
    "popolazione": 1782,
    "provincia_denominazione": "Palermo",
    "provincia_sigla": "PA",
    "regione_denominazione": "Sicilia",
    "regione_codice": 19
  },
  {
    "comune_denominazione": "Giardinello",
    "comune_codice_istat": "082038",
    "latitudine": 38.088049,
    "longitudine": 13.157041,
    "popolazione": 2271,
    "provincia_denominazione": "Palermo",
    "provincia_sigla": "PA",
    "regione_denominazione": "Sicilia",
    "regione_codice": 19
  },
  {
    "comune_denominazione": "Giuliana",
    "comune_codice_istat": "082039",
    "latitudine": 37.670591,
    "longitudine": 13.237804,
    "popolazione": 1746,
    "provincia_denominazione": "Palermo",
    "provincia_sigla": "PA",
    "regione_denominazione": "Sicilia",
    "regione_codice": 19
  },
  {
    "comune_denominazione": "Godrano",
    "comune_codice_istat": "082040",
    "latitudine": 37.903344,
    "longitudine": 13.428924,
    "popolazione": 1100,
    "provincia_denominazione": "Palermo",
    "provincia_sigla": "PA",
    "regione_denominazione": "Sicilia",
    "regione_codice": 19
  },
  {
    "comune_denominazione": "Gratteri",
    "comune_codice_istat": "082041",
    "latitudine": 37.967377,
    "longitudine": 13.97393,
    "popolazione": 887,
    "provincia_denominazione": "Palermo",
    "provincia_sigla": "PA",
    "regione_denominazione": "Sicilia",
    "regione_codice": 19
  },
  {
    "comune_denominazione": "Isnello",
    "comune_codice_istat": "082042",
    "latitudine": 37.943953,
    "longitudine": 14.005761,
    "popolazione": 1368,
    "provincia_denominazione": "Palermo",
    "provincia_sigla": "PA",
    "regione_denominazione": "Sicilia",
    "regione_codice": 19
  },
  {
    "comune_denominazione": "Isola delle Femmine",
    "comune_codice_istat": "082043",
    "latitudine": 38.198295,
    "longitudine": 13.247344,
    "popolazione": 7078,
    "provincia_denominazione": "Palermo",
    "provincia_sigla": "PA",
    "regione_denominazione": "Sicilia",
    "regione_codice": 19
  },
  {
    "comune_denominazione": "Lascari",
    "comune_codice_istat": "082044",
    "latitudine": 38.000053,
    "longitudine": 13.941459,
    "popolazione": 3671,
    "provincia_denominazione": "Palermo",
    "provincia_sigla": "PA",
    "regione_denominazione": "Sicilia",
    "regione_codice": 19
  },
  {
    "comune_denominazione": "Lercara Friddi",
    "comune_codice_istat": "082045",
    "latitudine": 37.746946,
    "longitudine": 13.604854,
    "popolazione": 6407,
    "provincia_denominazione": "Palermo",
    "provincia_sigla": "PA",
    "regione_denominazione": "Sicilia",
    "regione_codice": 19
  },
  {
    "comune_denominazione": "Marineo",
    "comune_codice_istat": "082046",
    "latitudine": 37.952893,
    "longitudine": 13.415024,
    "popolazione": 6283,
    "provincia_denominazione": "Palermo",
    "provincia_sigla": "PA",
    "regione_denominazione": "Sicilia",
    "regione_codice": 19
  },
  {
    "comune_denominazione": "Mezzojuso",
    "comune_codice_istat": "082047",
    "latitudine": 37.864532,
    "longitudine": 13.464195,
    "popolazione": 2754,
    "provincia_denominazione": "Palermo",
    "provincia_sigla": "PA",
    "regione_denominazione": "Sicilia",
    "regione_codice": 19
  },
  {
    "comune_denominazione": "Misilmeri",
    "comune_codice_istat": "082048",
    "latitudine": 38.03522,
    "longitudine": 13.451404,
    "popolazione": 28587,
    "provincia_denominazione": "Palermo",
    "provincia_sigla": "PA",
    "regione_denominazione": "Sicilia",
    "regione_codice": 19
  },
  {
    "comune_denominazione": "Monreale",
    "comune_codice_istat": "082049",
    "latitudine": 38.082632,
    "longitudine": 13.291993,
    "popolazione": 37375,
    "provincia_denominazione": "Palermo",
    "provincia_sigla": "PA",
    "regione_denominazione": "Sicilia",
    "regione_codice": 19
  },
  {
    "comune_denominazione": "Montelepre",
    "comune_codice_istat": "082050",
    "latitudine": 38.088964,
    "longitudine": 13.171343,
    "popolazione": 5879,
    "provincia_denominazione": "Palermo",
    "provincia_sigla": "PA",
    "regione_denominazione": "Sicilia",
    "regione_codice": 19
  },
  {
    "comune_denominazione": "Montemaggiore Belsito",
    "comune_codice_istat": "082051",
    "latitudine": 37.847752,
    "longitudine": 13.762048,
    "popolazione": 3050,
    "provincia_denominazione": "Palermo",
    "provincia_sigla": "PA",
    "regione_denominazione": "Sicilia",
    "regione_codice": 19
  },
  {
    "comune_denominazione": "Palazzo Adriano",
    "comune_codice_istat": "082052",
    "latitudine": 37.681254,
    "longitudine": 13.379266,
    "popolazione": 1881,
    "provincia_denominazione": "Palermo",
    "provincia_sigla": "PA",
    "regione_denominazione": "Sicilia",
    "regione_codice": 19
  },
  {
    "comune_denominazione": "Palermo",
    "comune_codice_istat": "082053",
    "latitudine": 38.111227,
    "longitudine": 13.352443,
    "popolazione": 640720,
    "provincia_denominazione": "Palermo",
    "provincia_sigla": "PA",
    "regione_denominazione": "Sicilia",
    "regione_codice": 19
  },
  {
    "comune_denominazione": "Partinico",
    "comune_codice_istat": "082054",
    "latitudine": 38.043896,
    "longitudine": 13.119821,
    "popolazione": 30729,
    "provincia_denominazione": "Palermo",
    "provincia_sigla": "PA",
    "regione_denominazione": "Sicilia",
    "regione_codice": 19
  },
  {
    "comune_denominazione": "Petralia Soprana",
    "comune_codice_istat": "082055",
    "latitudine": 37.79634,
    "longitudine": 14.108468,
    "popolazione": 3076,
    "provincia_denominazione": "Palermo",
    "provincia_sigla": "PA",
    "regione_denominazione": "Sicilia",
    "regione_codice": 19
  },
  {
    "comune_denominazione": "Petralia Sottana",
    "comune_codice_istat": "082056",
    "latitudine": 37.808225,
    "longitudine": 14.092513,
    "popolazione": 2520,
    "provincia_denominazione": "Palermo",
    "provincia_sigla": "PA",
    "regione_denominazione": "Sicilia",
    "regione_codice": 19
  },
  {
    "comune_denominazione": "Piana degli Albanesi",
    "comune_codice_istat": "082057",
    "latitudine": 37.994836,
    "longitudine": 13.282689,
    "popolazione": 5758,
    "provincia_denominazione": "Palermo",
    "provincia_sigla": "PA",
    "regione_denominazione": "Sicilia",
    "regione_codice": 19
  },
  {
    "comune_denominazione": "Polizzi Generosa",
    "comune_codice_istat": "082058",
    "latitudine": 37.812819,
    "longitudine": 13.999683,
    "popolazione": 3045,
    "provincia_denominazione": "Palermo",
    "provincia_sigla": "PA",
    "regione_denominazione": "Sicilia",
    "regione_codice": 19
  },
  {
    "comune_denominazione": "Pollina",
    "comune_codice_istat": "082059",
    "latitudine": 37.992894,
    "longitudine": 14.145799,
    "popolazione": 2857,
    "provincia_denominazione": "Palermo",
    "provincia_sigla": "PA",
    "regione_denominazione": "Sicilia",
    "regione_codice": 19
  },
  {
    "comune_denominazione": "Prizzi",
    "comune_codice_istat": "082060",
    "latitudine": 37.721453,
    "longitudine": 13.431265,
    "popolazione": 4392,
    "provincia_denominazione": "Palermo",
    "provincia_sigla": "PA",
    "regione_denominazione": "Sicilia",
    "regione_codice": 19
  },
  {
    "comune_denominazione": "Roccamena",
    "comune_codice_istat": "082061",
    "latitudine": 37.836028,
    "longitudine": 13.153858,
    "popolazione": 1389,
    "provincia_denominazione": "Palermo",
    "provincia_sigla": "PA",
    "regione_denominazione": "Sicilia",
    "regione_codice": 19
  },
  {
    "comune_denominazione": "Roccapalumba",
    "comune_codice_istat": "082062",
    "latitudine": 37.805948,
    "longitudine": 13.638455,
    "popolazione": 2232,
    "provincia_denominazione": "Palermo",
    "provincia_sigla": "PA",
    "regione_denominazione": "Sicilia",
    "regione_codice": 19
  },
  {
    "comune_denominazione": "San Cipirello",
    "comune_codice_istat": "082063",
    "latitudine": 37.96296,
    "longitudine": 13.17538,
    "popolazione": 5091,
    "provincia_denominazione": "Palermo",
    "provincia_sigla": "PA",
    "regione_denominazione": "Sicilia",
    "regione_codice": 19
  },
  {
    "comune_denominazione": "San Giuseppe Jato",
    "comune_codice_istat": "082064",
    "latitudine": 37.970486,
    "longitudine": 13.182489,
    "popolazione": 8247,
    "provincia_denominazione": "Palermo",
    "provincia_sigla": "PA",
    "regione_denominazione": "Sicilia",
    "regione_codice": 19
  },
  {
    "comune_denominazione": "San Mauro Castelverde",
    "comune_codice_istat": "082065",
    "latitudine": 37.914628,
    "longitudine": 14.190378,
    "popolazione": 1435,
    "provincia_denominazione": "Palermo",
    "provincia_sigla": "PA",
    "regione_denominazione": "Sicilia",
    "regione_codice": 19
  },
  {
    "comune_denominazione": "Santa Cristina Gela",
    "comune_codice_istat": "082066",
    "latitudine": 37.984932,
    "longitudine": 13.328096,
    "popolazione": 970,
    "provincia_denominazione": "Palermo",
    "provincia_sigla": "PA",
    "regione_denominazione": "Sicilia",
    "regione_codice": 19
  },
  {
    "comune_denominazione": "Santa Flavia",
    "comune_codice_istat": "082067",
    "latitudine": 38.081331,
    "longitudine": 13.52544,
    "popolazione": 10952,
    "provincia_denominazione": "Palermo",
    "provincia_sigla": "PA",
    "regione_denominazione": "Sicilia",
    "regione_codice": 19
  },
  {
    "comune_denominazione": "Sciara",
    "comune_codice_istat": "082068",
    "latitudine": 37.914892,
    "longitudine": 13.762343,
    "popolazione": 2590,
    "provincia_denominazione": "Palermo",
    "provincia_sigla": "PA",
    "regione_denominazione": "Sicilia",
    "regione_codice": 19
  },
  {
    "comune_denominazione": "Sclafani Bagni",
    "comune_codice_istat": "082069",
    "latitudine": 37.821589,
    "longitudine": 13.85478,
    "popolazione": 389,
    "provincia_denominazione": "Palermo",
    "provincia_sigla": "PA",
    "regione_denominazione": "Sicilia",
    "regione_codice": 19
  },
  {
    "comune_denominazione": "Termini Imerese",
    "comune_codice_istat": "082070",
    "latitudine": 37.983651,
    "longitudine": 13.695554,
    "popolazione": 25382,
    "provincia_denominazione": "Palermo",
    "provincia_sigla": "PA",
    "regione_denominazione": "Sicilia",
    "regione_codice": 19
  },
  {
    "comune_denominazione": "Terrasini",
    "comune_codice_istat": "082071",
    "latitudine": 38.152822,
    "longitudine": 13.082122,
    "popolazione": 12528,
    "provincia_denominazione": "Palermo",
    "provincia_sigla": "PA",
    "regione_denominazione": "Sicilia",
    "regione_codice": 19
  },
  {
    "comune_denominazione": "Torretta",
    "comune_codice_istat": "082072",
    "latitudine": 38.130061,
    "longitudine": 13.233501,
    "popolazione": 4157,
    "provincia_denominazione": "Palermo",
    "provincia_sigla": "PA",
    "regione_denominazione": "Sicilia",
    "regione_codice": 19
  },
  {
    "comune_denominazione": "Trabia",
    "comune_codice_istat": "082073",
    "latitudine": 37.994386,
    "longitudine": 13.65651,
    "popolazione": 10248,
    "provincia_denominazione": "Palermo",
    "provincia_sigla": "PA",
    "regione_denominazione": "Sicilia",
    "regione_codice": 19
  },
  {
    "comune_denominazione": "Trappeto",
    "comune_codice_istat": "082074",
    "latitudine": 38.067008,
    "longitudine": 13.03655,
    "popolazione": 3015,
    "provincia_denominazione": "Palermo",
    "provincia_sigla": "PA",
    "regione_denominazione": "Sicilia",
    "regione_codice": 19
  },
  {
    "comune_denominazione": "Ustica",
    "comune_codice_istat": "082075",
    "latitudine": 38.710381,
    "longitudine": 13.191874,
    "popolazione": 1291,
    "provincia_denominazione": "Palermo",
    "provincia_sigla": "PA",
    "regione_denominazione": "Sicilia",
    "regione_codice": 19
  },
  {
    "comune_denominazione": "Valledolmo",
    "comune_codice_istat": "082076",
    "latitudine": 37.747448,
    "longitudine": 13.827859,
    "popolazione": 3323,
    "provincia_denominazione": "Palermo",
    "provincia_sigla": "PA",
    "regione_denominazione": "Sicilia",
    "regione_codice": 19
  },
  {
    "comune_denominazione": "Ventimiglia di Sicilia",
    "comune_codice_istat": "082077",
    "latitudine": 37.923341,
    "longitudine": 13.569255,
    "popolazione": 1851,
    "provincia_denominazione": "Palermo",
    "provincia_sigla": "PA",
    "regione_denominazione": "Sicilia",
    "regione_codice": 19
  },
  {
    "comune_denominazione": "Vicari",
    "comune_codice_istat": "082078",
    "latitudine": 37.825092,
    "longitudine": 13.571302,
    "popolazione": 2525,
    "provincia_denominazione": "Palermo",
    "provincia_sigla": "PA",
    "regione_denominazione": "Sicilia",
    "regione_codice": 19
  },
  {
    "comune_denominazione": "Villabate",
    "comune_codice_istat": "082079",
    "latitudine": 38.076528,
    "longitudine": 13.443667,
    "popolazione": 19643,
    "provincia_denominazione": "Palermo",
    "provincia_sigla": "PA",
    "regione_denominazione": "Sicilia",
    "regione_codice": 19
  },
  {
    "comune_denominazione": "Villafrati",
    "comune_codice_istat": "082080",
    "latitudine": 37.908012,
    "longitudine": 13.48635,
    "popolazione": 3164,
    "provincia_denominazione": "Palermo",
    "provincia_sigla": "PA",
    "regione_denominazione": "Sicilia",
    "regione_codice": 19
  },
  {
    "comune_denominazione": "Scillato",
    "comune_codice_istat": "082081",
    "latitudine": 37.856724,
    "longitudine": 13.906854,
    "popolazione": 631,
    "provincia_denominazione": "Palermo",
    "provincia_sigla": "PA",
    "regione_denominazione": "Sicilia",
    "regione_codice": 19
  },
  {
    "comune_denominazione": "Blufi",
    "comune_codice_istat": "082082",
    "latitudine": 37.751474,
    "longitudine": 14.074827,
    "popolazione": 911,
    "provincia_denominazione": "Palermo",
    "provincia_sigla": "PA",
    "regione_denominazione": "Sicilia",
    "regione_codice": 19
  },
  {
    "comune_denominazione": "Alcara li Fusi",
    "comune_codice_istat": "083001",
    "latitudine": 38.021318,
    "longitudine": 14.701396,
    "popolazione": 1792,
    "provincia_denominazione": "Messina",
    "provincia_sigla": "ME",
    "regione_denominazione": "Sicilia",
    "regione_codice": 19
  },
  {
    "comune_denominazione": "Alì",
    "comune_codice_istat": "083002",
    "latitudine": 38.027364,
    "longitudine": 15.417689,
    "popolazione": 694,
    "provincia_denominazione": "Messina",
    "provincia_sigla": "ME",
    "regione_denominazione": "Sicilia",
    "regione_codice": 19
  },
  {
    "comune_denominazione": "Alì Terme",
    "comune_codice_istat": "083003",
    "latitudine": 38.005064,
    "longitudine": 15.42269,
    "popolazione": 2386,
    "provincia_denominazione": "Messina",
    "provincia_sigla": "ME",
    "regione_denominazione": "Sicilia",
    "regione_codice": 19
  },
  {
    "comune_denominazione": "Antillo",
    "comune_codice_istat": "083004",
    "latitudine": 37.977262,
    "longitudine": 15.244786,
    "popolazione": 836,
    "provincia_denominazione": "Messina",
    "provincia_sigla": "ME",
    "regione_denominazione": "Sicilia",
    "regione_codice": 19
  },
  {
    "comune_denominazione": "Barcellona Pozzo di Gotto",
    "comune_codice_istat": "083005",
    "latitudine": 38.148306,
    "longitudine": 15.217552,
    "popolazione": 40263,
    "provincia_denominazione": "Messina",
    "provincia_sigla": "ME",
    "regione_denominazione": "Sicilia",
    "regione_codice": 19
  },
  {
    "comune_denominazione": "Basicò",
    "comune_codice_istat": "083006",
    "latitudine": 38.061393,
    "longitudine": 15.062248,
    "popolazione": 554,
    "provincia_denominazione": "Messina",
    "provincia_sigla": "ME",
    "regione_denominazione": "Sicilia",
    "regione_codice": 19
  },
  {
    "comune_denominazione": "Brolo",
    "comune_codice_istat": "083007",
    "latitudine": 38.155362,
    "longitudine": 14.829575,
    "popolazione": 5777,
    "provincia_denominazione": "Messina",
    "provincia_sigla": "ME",
    "regione_denominazione": "Sicilia",
    "regione_codice": 19
  },
  {
    "comune_denominazione": "Capizzi",
    "comune_codice_istat": "083008",
    "latitudine": 37.848909,
    "longitudine": 14.478473,
    "popolazione": 2846,
    "provincia_denominazione": "Messina",
    "provincia_sigla": "ME",
    "regione_denominazione": "Sicilia",
    "regione_codice": 19
  },
  {
    "comune_denominazione": "Capo d'Orlando",
    "comune_codice_istat": "083009",
    "latitudine": 38.159573,
    "longitudine": 14.745073,
    "popolazione": 13157,
    "provincia_denominazione": "Messina",
    "provincia_sigla": "ME",
    "regione_denominazione": "Sicilia",
    "regione_codice": 19
  },
  {
    "comune_denominazione": "Capri Leone",
    "comune_codice_istat": "083010",
    "latitudine": 38.085874,
    "longitudine": 14.730118,
    "popolazione": 4354,
    "provincia_denominazione": "Messina",
    "provincia_sigla": "ME",
    "regione_denominazione": "Sicilia",
    "regione_codice": 19
  },
  {
    "comune_denominazione": "Caronia",
    "comune_codice_istat": "083011",
    "latitudine": 38.024707,
    "longitudine": 14.440584,
    "popolazione": 3104,
    "provincia_denominazione": "Messina",
    "provincia_sigla": "ME",
    "regione_denominazione": "Sicilia",
    "regione_codice": 19
  },
  {
    "comune_denominazione": "Casalvecchio Siculo",
    "comune_codice_istat": "083012",
    "latitudine": 37.958162,
    "longitudine": 15.322588,
    "popolazione": 747,
    "provincia_denominazione": "Messina",
    "provincia_sigla": "ME",
    "regione_denominazione": "Sicilia",
    "regione_codice": 19
  },
  {
    "comune_denominazione": "Castel di Lucio",
    "comune_codice_istat": "083013",
    "latitudine": 37.886454,
    "longitudine": 14.312168,
    "popolazione": 1186,
    "provincia_denominazione": "Messina",
    "provincia_sigla": "ME",
    "regione_denominazione": "Sicilia",
    "regione_codice": 19
  },
  {
    "comune_denominazione": "Castell'Umberto",
    "comune_codice_istat": "083014",
    "latitudine": 38.08437,
    "longitudine": 14.807122,
    "popolazione": 2923,
    "provincia_denominazione": "Messina",
    "provincia_sigla": "ME",
    "regione_denominazione": "Sicilia",
    "regione_codice": 19
  },
  {
    "comune_denominazione": "Castelmola",
    "comune_codice_istat": "083015",
    "latitudine": 37.858348,
    "longitudine": 15.277316,
    "popolazione": 1089,
    "provincia_denominazione": "Messina",
    "provincia_sigla": "ME",
    "regione_denominazione": "Sicilia",
    "regione_codice": 19
  },
  {
    "comune_denominazione": "Castroreale",
    "comune_codice_istat": "083016",
    "latitudine": 38.099272,
    "longitudine": 15.210686,
    "popolazione": 2240,
    "provincia_denominazione": "Messina",
    "provincia_sigla": "ME",
    "regione_denominazione": "Sicilia",
    "regione_codice": 19
  },
  {
    "comune_denominazione": "Cesarò",
    "comune_codice_istat": "083017",
    "latitudine": 37.844756,
    "longitudine": 14.713076,
    "popolazione": 2167,
    "provincia_denominazione": "Messina",
    "provincia_sigla": "ME",
    "regione_denominazione": "Sicilia",
    "regione_codice": 19
  },
  {
    "comune_denominazione": "Condrò",
    "comune_codice_istat": "083018",
    "latitudine": 38.173177,
    "longitudine": 15.326943,
    "popolazione": 447,
    "provincia_denominazione": "Messina",
    "provincia_sigla": "ME",
    "regione_denominazione": "Sicilia",
    "regione_codice": 19
  },
  {
    "comune_denominazione": "Falcone",
    "comune_codice_istat": "083019",
    "latitudine": 38.117482,
    "longitudine": 15.079611,
    "popolazione": 2717,
    "provincia_denominazione": "Messina",
    "provincia_sigla": "ME",
    "regione_denominazione": "Sicilia",
    "regione_codice": 19
  },
  {
    "comune_denominazione": "Ficarra",
    "comune_codice_istat": "083020",
    "latitudine": 38.109061,
    "longitudine": 14.828976,
    "popolazione": 1338,
    "provincia_denominazione": "Messina",
    "provincia_sigla": "ME",
    "regione_denominazione": "Sicilia",
    "regione_codice": 19
  },
  {
    "comune_denominazione": "Fiumedinisi",
    "comune_codice_istat": "083021",
    "latitudine": 38.026238,
    "longitudine": 15.382083,
    "popolazione": 1316,
    "provincia_denominazione": "Messina",
    "provincia_sigla": "ME",
    "regione_denominazione": "Sicilia",
    "regione_codice": 19
  },
  {
    "comune_denominazione": "Floresta",
    "comune_codice_istat": "083022",
    "latitudine": 37.987351,
    "longitudine": 14.909714,
    "popolazione": 441,
    "provincia_denominazione": "Messina",
    "provincia_sigla": "ME",
    "regione_denominazione": "Sicilia",
    "regione_codice": 19
  },
  {
    "comune_denominazione": "Fondachelli-Fantina",
    "comune_codice_istat": "083023",
    "latitudine": 38.000627,
    "longitudine": 15.182419,
    "popolazione": 983,
    "provincia_denominazione": "Messina",
    "provincia_sigla": "ME",
    "regione_denominazione": "Sicilia",
    "regione_codice": 19
  },
  {
    "comune_denominazione": "Forza d'Agrò",
    "comune_codice_istat": "083024",
    "latitudine": 37.91372,
    "longitudine": 15.335449,
    "popolazione": 868,
    "provincia_denominazione": "Messina",
    "provincia_sigla": "ME",
    "regione_denominazione": "Sicilia",
    "regione_codice": 19
  },
  {
    "comune_denominazione": "Francavilla di Sicilia",
    "comune_codice_istat": "083025",
    "latitudine": 37.901129,
    "longitudine": 15.136208,
    "popolazione": 3619,
    "provincia_denominazione": "Messina",
    "provincia_sigla": "ME",
    "regione_denominazione": "Sicilia",
    "regione_codice": 19
  },
  {
    "comune_denominazione": "Frazzanò",
    "comune_codice_istat": "083026",
    "latitudine": 38.072269,
    "longitudine": 14.744953,
    "popolazione": 594,
    "provincia_denominazione": "Messina",
    "provincia_sigla": "ME",
    "regione_denominazione": "Sicilia",
    "regione_codice": 19
  },
  {
    "comune_denominazione": "Furci Siculo",
    "comune_codice_istat": "083027",
    "latitudine": 37.961204,
    "longitudine": 15.381735,
    "popolazione": 3185,
    "provincia_denominazione": "Messina",
    "provincia_sigla": "ME",
    "regione_denominazione": "Sicilia",
    "regione_codice": 19
  },
  {
    "comune_denominazione": "Furnari",
    "comune_codice_istat": "083028",
    "latitudine": 38.104671,
    "longitudine": 15.125223,
    "popolazione": 3863,
    "provincia_denominazione": "Messina",
    "provincia_sigla": "ME",
    "regione_denominazione": "Sicilia",
    "regione_codice": 19
  },
  {
    "comune_denominazione": "Gaggi",
    "comune_codice_istat": "083029",
    "latitudine": 37.860091,
    "longitudine": 15.221412,
    "popolazione": 3116,
    "provincia_denominazione": "Messina",
    "provincia_sigla": "ME",
    "regione_denominazione": "Sicilia",
    "regione_codice": 19
  },
  {
    "comune_denominazione": "Galati Mamertino",
    "comune_codice_istat": "083030",
    "latitudine": 38.031559,
    "longitudine": 14.772517,
    "popolazione": 2373,
    "provincia_denominazione": "Messina",
    "provincia_sigla": "ME",
    "regione_denominazione": "Sicilia",
    "regione_codice": 19
  },
  {
    "comune_denominazione": "Gallodoro",
    "comune_codice_istat": "083031",
    "latitudine": 37.90183,
    "longitudine": 15.293695,
    "popolazione": 344,
    "provincia_denominazione": "Messina",
    "provincia_sigla": "ME",
    "regione_denominazione": "Sicilia",
    "regione_codice": 19
  },
  {
    "comune_denominazione": "Giardini-Naxos",
    "comune_codice_istat": "083032",
    "latitudine": 37.835441,
    "longitudine": 15.271845,
    "popolazione": 9147,
    "provincia_denominazione": "Messina",
    "provincia_sigla": "ME",
    "regione_denominazione": "Sicilia",
    "regione_codice": 19
  },
  {
    "comune_denominazione": "Gioiosa Marea",
    "comune_codice_istat": "083033",
    "latitudine": 38.173269,
    "longitudine": 14.895164,
    "popolazione": 6844,
    "provincia_denominazione": "Messina",
    "provincia_sigla": "ME",
    "regione_denominazione": "Sicilia",
    "regione_codice": 19
  },
  {
    "comune_denominazione": "Graniti",
    "comune_codice_istat": "083034",
    "latitudine": 37.890173,
    "longitudine": 15.224898,
    "popolazione": 1446,
    "provincia_denominazione": "Messina",
    "provincia_sigla": "ME",
    "regione_denominazione": "Sicilia",
    "regione_codice": 19
  },
  {
    "comune_denominazione": "Gualtieri Sicaminò",
    "comune_codice_istat": "083035",
    "latitudine": 38.163249,
    "longitudine": 15.316544,
    "popolazione": 1624,
    "provincia_denominazione": "Messina",
    "provincia_sigla": "ME",
    "regione_denominazione": "Sicilia",
    "regione_codice": 19
  },
  {
    "comune_denominazione": "Itala",
    "comune_codice_istat": "083036",
    "latitudine": 38.051059,
    "longitudine": 15.436903,
    "popolazione": 1508,
    "provincia_denominazione": "Messina",
    "provincia_sigla": "ME",
    "regione_denominazione": "Sicilia",
    "regione_codice": 19
  },
  {
    "comune_denominazione": "Leni",
    "comune_codice_istat": "083037",
    "latitudine": 38.554469,
    "longitudine": 14.825471,
    "popolazione": 684,
    "provincia_denominazione": "Messina",
    "provincia_sigla": "ME",
    "regione_denominazione": "Sicilia",
    "regione_codice": 19
  },
  {
    "comune_denominazione": "Letojanni",
    "comune_codice_istat": "083038",
    "latitudine": 37.880276,
    "longitudine": 15.306866,
    "popolazione": 2722,
    "provincia_denominazione": "Messina",
    "provincia_sigla": "ME",
    "regione_denominazione": "Sicilia",
    "regione_codice": 19
  },
  {
    "comune_denominazione": "Librizzi",
    "comune_codice_istat": "083039",
    "latitudine": 38.096866,
    "longitudine": 14.95834,
    "popolazione": 1609,
    "provincia_denominazione": "Messina",
    "provincia_sigla": "ME",
    "regione_denominazione": "Sicilia",
    "regione_codice": 19
  },
  {
    "comune_denominazione": "Limina",
    "comune_codice_istat": "083040",
    "latitudine": 37.940774,
    "longitudine": 15.272668,
    "popolazione": 727,
    "provincia_denominazione": "Messina",
    "provincia_sigla": "ME",
    "regione_denominazione": "Sicilia",
    "regione_codice": 19
  },
  {
    "comune_denominazione": "Lipari",
    "comune_codice_istat": "083041",
    "latitudine": 38.468185,
    "longitudine": 14.95472,
    "popolazione": 12334,
    "provincia_denominazione": "Messina",
    "provincia_sigla": "ME",
    "regione_denominazione": "Sicilia",
    "regione_codice": 19
  },
  {
    "comune_denominazione": "Longi",
    "comune_codice_istat": "083042",
    "latitudine": 38.027271,
    "longitudine": 14.752656,
    "popolazione": 1359,
    "provincia_denominazione": "Messina",
    "provincia_sigla": "ME",
    "regione_denominazione": "Sicilia",
    "regione_codice": 19
  },
  {
    "comune_denominazione": "Malfa",
    "comune_codice_istat": "083043",
    "latitudine": 38.57597,
    "longitudine": 14.835471,
    "popolazione": 976,
    "provincia_denominazione": "Messina",
    "provincia_sigla": "ME",
    "regione_denominazione": "Sicilia",
    "regione_codice": 19
  },
  {
    "comune_denominazione": "Malvagna",
    "comune_codice_istat": "083044",
    "latitudine": 37.918393,
    "longitudine": 15.055383,
    "popolazione": 650,
    "provincia_denominazione": "Messina",
    "provincia_sigla": "ME",
    "regione_denominazione": "Sicilia",
    "regione_codice": 19
  },
  {
    "comune_denominazione": "Mandanici",
    "comune_codice_istat": "083045",
    "latitudine": 38.003586,
    "longitudine": 15.317095,
    "popolazione": 558,
    "provincia_denominazione": "Messina",
    "provincia_sigla": "ME",
    "regione_denominazione": "Sicilia",
    "regione_codice": 19
  },
  {
    "comune_denominazione": "Mazzarrà Sant'Andrea",
    "comune_codice_istat": "083046",
    "latitudine": 38.088463,
    "longitudine": 15.133583,
    "popolazione": 1411,
    "provincia_denominazione": "Messina",
    "provincia_sigla": "ME",
    "regione_denominazione": "Sicilia",
    "regione_codice": 19
  },
  {
    "comune_denominazione": "Merì",
    "comune_codice_istat": "083047",
    "latitudine": 38.166817,
    "longitudine": 15.25037,
    "popolazione": 2346,
    "provincia_denominazione": "Messina",
    "provincia_sigla": "ME",
    "regione_denominazione": "Sicilia",
    "regione_codice": 19
  },
  {
    "comune_denominazione": "Messina",
    "comune_codice_istat": "083048",
    "latitudine": 38.193757,
    "longitudine": 15.554208,
    "popolazione": 225546,
    "provincia_denominazione": "Messina",
    "provincia_sigla": "ME",
    "regione_denominazione": "Sicilia",
    "regione_codice": 19
  },
  {
    "comune_denominazione": "Milazzo",
    "comune_codice_istat": "083049",
    "latitudine": 38.220805,
    "longitudine": 15.241513,
    "popolazione": 29884,
    "provincia_denominazione": "Messina",
    "provincia_sigla": "ME",
    "regione_denominazione": "Sicilia",
    "regione_codice": 19
  },
  {
    "comune_denominazione": "Militello Rosmarino",
    "comune_codice_istat": "083050",
    "latitudine": 38.045917,
    "longitudine": 14.676017,
    "popolazione": 1221,
    "provincia_denominazione": "Messina",
    "provincia_sigla": "ME",
    "regione_denominazione": "Sicilia",
    "regione_codice": 19
  },
  {
    "comune_denominazione": "Mirto",
    "comune_codice_istat": "083051",
    "latitudine": 38.08466,
    "longitudine": 14.751475,
    "popolazione": 911,
    "provincia_denominazione": "Messina",
    "provincia_sigla": "ME",
    "regione_denominazione": "Sicilia",
    "regione_codice": 19
  },
  {
    "comune_denominazione": "Mistretta",
    "comune_codice_istat": "083052",
    "latitudine": 37.929885,
    "longitudine": 14.362873,
    "popolazione": 4509,
    "provincia_denominazione": "Messina",
    "provincia_sigla": "ME",
    "regione_denominazione": "Sicilia",
    "regione_codice": 19
  },
  {
    "comune_denominazione": "Moio Alcantara",
    "comune_codice_istat": "083053",
    "latitudine": 37.89967,
    "longitudine": 15.049043,
    "popolazione": 675,
    "provincia_denominazione": "Messina",
    "provincia_sigla": "ME",
    "regione_denominazione": "Sicilia",
    "regione_codice": 19
  },
  {
    "comune_denominazione": "Monforte San Giorgio",
    "comune_codice_istat": "083054",
    "latitudine": 38.156401,
    "longitudine": 15.383256,
    "popolazione": 2581,
    "provincia_denominazione": "Messina",
    "provincia_sigla": "ME",
    "regione_denominazione": "Sicilia",
    "regione_codice": 19
  },
  {
    "comune_denominazione": "Mongiuffi Melia",
    "comune_codice_istat": "083055",
    "latitudine": 37.905877,
    "longitudine": 15.255718,
    "popolazione": 543,
    "provincia_denominazione": "Messina",
    "provincia_sigla": "ME",
    "regione_denominazione": "Sicilia",
    "regione_codice": 19
  },
  {
    "comune_denominazione": "Montagnareale",
    "comune_codice_istat": "083056",
    "latitudine": 38.132354,
    "longitudine": 14.946482,
    "popolazione": 1450,
    "provincia_denominazione": "Messina",
    "provincia_sigla": "ME",
    "regione_denominazione": "Sicilia",
    "regione_codice": 19
  },
  {
    "comune_denominazione": "Montalbano Elicona",
    "comune_codice_istat": "083057",
    "latitudine": 38.023409,
    "longitudine": 15.013672,
    "popolazione": 2054,
    "provincia_denominazione": "Messina",
    "provincia_sigla": "ME",
    "regione_denominazione": "Sicilia",
    "regione_codice": 19
  },
  {
    "comune_denominazione": "Motta Camastra",
    "comune_codice_istat": "083058",
    "latitudine": 37.894319,
    "longitudine": 15.170271,
    "popolazione": 794,
    "provincia_denominazione": "Messina",
    "provincia_sigla": "ME",
    "regione_denominazione": "Sicilia",
    "regione_codice": 19
  },
  {
    "comune_denominazione": "Motta d'Affermo",
    "comune_codice_istat": "083059",
    "latitudine": 37.981173,
    "longitudine": 14.302061,
    "popolazione": 664,
    "provincia_denominazione": "Messina",
    "provincia_sigla": "ME",
    "regione_denominazione": "Sicilia",
    "regione_codice": 19
  },
  {
    "comune_denominazione": "Naso",
    "comune_codice_istat": "083060",
    "latitudine": 38.122118,
    "longitudine": 14.78898,
    "popolazione": 3556,
    "provincia_denominazione": "Messina",
    "provincia_sigla": "ME",
    "regione_denominazione": "Sicilia",
    "regione_codice": 19
  },
  {
    "comune_denominazione": "Nizza di Sicilia",
    "comune_codice_istat": "083061",
    "latitudine": 37.992622,
    "longitudine": 15.411913,
    "popolazione": 3539,
    "provincia_denominazione": "Messina",
    "provincia_sigla": "ME",
    "regione_denominazione": "Sicilia",
    "regione_codice": 19
  },
  {
    "comune_denominazione": "Novara di Sicilia",
    "comune_codice_istat": "083062",
    "latitudine": 38.016082,
    "longitudine": 15.13183,
    "popolazione": 1206,
    "provincia_denominazione": "Messina",
    "provincia_sigla": "ME",
    "regione_denominazione": "Sicilia",
    "regione_codice": 19
  },
  {
    "comune_denominazione": "Oliveri",
    "comune_codice_istat": "083063",
    "latitudine": 38.123481,
    "longitudine": 15.060849,
    "popolazione": 2062,
    "provincia_denominazione": "Messina",
    "provincia_sigla": "ME",
    "regione_denominazione": "Sicilia",
    "regione_codice": 19
  },
  {
    "comune_denominazione": "Pace del Mela",
    "comune_codice_istat": "083064",
    "latitudine": 38.179625,
    "longitudine": 15.305332,
    "popolazione": 6152,
    "provincia_denominazione": "Messina",
    "provincia_sigla": "ME",
    "regione_denominazione": "Sicilia",
    "regione_codice": 19
  },
  {
    "comune_denominazione": "Pagliara",
    "comune_codice_istat": "083065",
    "latitudine": 37.985463,
    "longitudine": 15.359689,
    "popolazione": 1114,
    "provincia_denominazione": "Messina",
    "provincia_sigla": "ME",
    "regione_denominazione": "Sicilia",
    "regione_codice": 19
  },
  {
    "comune_denominazione": "Patti",
    "comune_codice_istat": "083066",
    "latitudine": 38.138901,
    "longitudine": 14.964816,
    "popolazione": 12842,
    "provincia_denominazione": "Messina",
    "provincia_sigla": "ME",
    "regione_denominazione": "Sicilia",
    "regione_codice": 19
  },
  {
    "comune_denominazione": "Pettineo",
    "comune_codice_istat": "083067",
    "latitudine": 37.966364,
    "longitudine": 14.29191,
    "popolazione": 1260,
    "provincia_denominazione": "Messina",
    "provincia_sigla": "ME",
    "regione_denominazione": "Sicilia",
    "regione_codice": 19
  },
  {
    "comune_denominazione": "Piraino",
    "comune_codice_istat": "083068",
    "latitudine": 38.161243,
    "longitudine": 14.861943,
    "popolazione": 3832,
    "provincia_denominazione": "Messina",
    "provincia_sigla": "ME",
    "regione_denominazione": "Sicilia",
    "regione_codice": 19
  },
  {
    "comune_denominazione": "Raccuja",
    "comune_codice_istat": "083069",
    "latitudine": 38.055261,
    "longitudine": 14.909578,
    "popolazione": 895,
    "provincia_denominazione": "Messina",
    "provincia_sigla": "ME",
    "regione_denominazione": "Sicilia",
    "regione_codice": 19
  },
  {
    "comune_denominazione": "Reitano",
    "comune_codice_istat": "083070",
    "latitudine": 37.97284,
    "longitudine": 14.34429,
    "popolazione": 719,
    "provincia_denominazione": "Messina",
    "provincia_sigla": "ME",
    "regione_denominazione": "Sicilia",
    "regione_codice": 19
  },
  {
    "comune_denominazione": "Roccafiorita",
    "comune_codice_istat": "083071",
    "latitudine": 37.930197,
    "longitudine": 15.268096,
    "popolazione": 181,
    "provincia_denominazione": "Messina",
    "provincia_sigla": "ME",
    "regione_denominazione": "Sicilia",
    "regione_codice": 19
  },
  {
    "comune_denominazione": "Roccalumera",
    "comune_codice_istat": "083072",
    "latitudine": 37.976263,
    "longitudine": 15.395189,
    "popolazione": 3932,
    "provincia_denominazione": "Messina",
    "provincia_sigla": "ME",
    "regione_denominazione": "Sicilia",
    "regione_codice": 19
  },
  {
    "comune_denominazione": "Roccavaldina",
    "comune_codice_istat": "083073",
    "latitudine": 38.181484,
    "longitudine": 15.372556,
    "popolazione": 1008,
    "provincia_denominazione": "Messina",
    "provincia_sigla": "ME",
    "regione_denominazione": "Sicilia",
    "regione_codice": 19
  },
  {
    "comune_denominazione": "Roccella Valdemone",
    "comune_codice_istat": "083074",
    "latitudine": 37.932983,
    "longitudine": 15.008455,
    "popolazione": 580,
    "provincia_denominazione": "Messina",
    "provincia_sigla": "ME",
    "regione_denominazione": "Sicilia",
    "regione_codice": 19
  },
  {
    "comune_denominazione": "Rodì Milici",
    "comune_codice_istat": "083075",
    "latitudine": 38.068965,
    "longitudine": 15.174781,
    "popolazione": 1968,
    "provincia_denominazione": "Messina",
    "provincia_sigla": "ME",
    "regione_denominazione": "Sicilia",
    "regione_codice": 19
  },
  {
    "comune_denominazione": "Rometta",
    "comune_codice_istat": "083076",
    "latitudine": 38.171115,
    "longitudine": 15.41455,
    "popolazione": 6429,
    "provincia_denominazione": "Messina",
    "provincia_sigla": "ME",
    "regione_denominazione": "Sicilia",
    "regione_codice": 19
  },
  {
    "comune_denominazione": "San Filippo del Mela",
    "comune_codice_istat": "083077",
    "latitudine": 38.169727,
    "longitudine": 15.272527,
    "popolazione": 6770,
    "provincia_denominazione": "Messina",
    "provincia_sigla": "ME",
    "regione_denominazione": "Sicilia",
    "regione_codice": 19
  },
  {
    "comune_denominazione": "San Fratello",
    "comune_codice_istat": "083078",
    "latitudine": 38.013442,
    "longitudine": 14.597392,
    "popolazione": 3379,
    "provincia_denominazione": "Messina",
    "provincia_sigla": "ME",
    "regione_denominazione": "Sicilia",
    "regione_codice": 19
  },
  {
    "comune_denominazione": "San Marco d'Alunzio",
    "comune_codice_istat": "083079",
    "latitudine": 38.073514,
    "longitudine": 14.699355,
    "popolazione": 1818,
    "provincia_denominazione": "Messina",
    "provincia_sigla": "ME",
    "regione_denominazione": "Sicilia",
    "regione_codice": 19
  },
  {
    "comune_denominazione": "San Pier Niceto",
    "comune_codice_istat": "083080",
    "latitudine": 38.158918,
    "longitudine": 15.351874,
    "popolazione": 2638,
    "provincia_denominazione": "Messina",
    "provincia_sigla": "ME",
    "regione_denominazione": "Sicilia",
    "regione_codice": 19
  },
  {
    "comune_denominazione": "San Piero Patti",
    "comune_codice_istat": "083081",
    "latitudine": 38.05215,
    "longitudine": 14.967069,
    "popolazione": 2657,
    "provincia_denominazione": "Messina",
    "provincia_sigla": "ME",
    "regione_denominazione": "Sicilia",
    "regione_codice": 19
  },
  {
    "comune_denominazione": "San Salvatore di Fitalia",
    "comune_codice_istat": "083082",
    "latitudine": 38.071713,
    "longitudine": 14.777616,
    "popolazione": 1180,
    "provincia_denominazione": "Messina",
    "provincia_sigla": "ME",
    "regione_denominazione": "Sicilia",
    "regione_codice": 19
  },
  {
    "comune_denominazione": "Santa Domenica Vittoria",
    "comune_codice_istat": "083083",
    "latitudine": 37.916744,
    "longitudine": 14.962592,
    "popolazione": 869,
    "provincia_denominazione": "Messina",
    "provincia_sigla": "ME",
    "regione_denominazione": "Sicilia",
    "regione_codice": 19
  },
  {
    "comune_denominazione": "Sant'Agata di Militello",
    "comune_codice_istat": "083084",
    "latitudine": 38.068062,
    "longitudine": 14.633334,
    "popolazione": 12190,
    "provincia_denominazione": "Messina",
    "provincia_sigla": "ME",
    "regione_denominazione": "Sicilia",
    "regione_codice": 19
  },
  {
    "comune_denominazione": "Sant'Alessio Siculo",
    "comune_codice_istat": "083085",
    "latitudine": 37.924494,
    "longitudine": 15.349288,
    "popolazione": 1487,
    "provincia_denominazione": "Messina",
    "provincia_sigla": "ME",
    "regione_denominazione": "Sicilia",
    "regione_codice": 19
  },
  {
    "comune_denominazione": "Santa Lucia del Mela",
    "comune_codice_istat": "083086",
    "latitudine": 38.143461,
    "longitudine": 15.280676,
    "popolazione": 4505,
    "provincia_denominazione": "Messina",
    "provincia_sigla": "ME",
    "regione_denominazione": "Sicilia",
    "regione_codice": 19
  },
  {
    "comune_denominazione": "Santa Marina Salina",
    "comune_codice_istat": "083087",
    "latitudine": 38.56117,
    "longitudine": 14.870772,
    "popolazione": 843,
    "provincia_denominazione": "Messina",
    "provincia_sigla": "ME",
    "regione_denominazione": "Sicilia",
    "regione_codice": 19
  },
  {
    "comune_denominazione": "Sant'Angelo di Brolo",
    "comune_codice_istat": "083088",
    "latitudine": 38.113879,
    "longitudine": 14.882663,
    "popolazione": 2883,
    "provincia_denominazione": "Messina",
    "provincia_sigla": "ME",
    "regione_denominazione": "Sicilia",
    "regione_codice": 19
  },
  {
    "comune_denominazione": "Santa Teresa di Riva",
    "comune_codice_istat": "083089",
    "latitudine": 37.946962,
    "longitudine": 15.367689,
    "popolazione": 9414,
    "provincia_denominazione": "Messina",
    "provincia_sigla": "ME",
    "regione_denominazione": "Sicilia",
    "regione_codice": 19
  },
  {
    "comune_denominazione": "San Teodoro",
    "comune_codice_istat": "083090",
    "latitudine": 37.847208,
    "longitudine": 14.7001,
    "popolazione": 1278,
    "provincia_denominazione": "Messina",
    "provincia_sigla": "ME",
    "regione_denominazione": "Sicilia",
    "regione_codice": 19
  },
  {
    "comune_denominazione": "Santo Stefano di Camastra",
    "comune_codice_istat": "083091",
    "latitudine": 38.015444,
    "longitudine": 14.349027,
    "popolazione": 4489,
    "provincia_denominazione": "Messina",
    "provincia_sigla": "ME",
    "regione_denominazione": "Sicilia",
    "regione_codice": 19
  },
  {
    "comune_denominazione": "Saponara",
    "comune_codice_istat": "083092",
    "latitudine": 38.19382,
    "longitudine": 15.434458,
    "popolazione": 3726,
    "provincia_denominazione": "Messina",
    "provincia_sigla": "ME",
    "regione_denominazione": "Sicilia",
    "regione_codice": 19
  },
  {
    "comune_denominazione": "Savoca",
    "comune_codice_istat": "083093",
    "latitudine": 37.955859,
    "longitudine": 15.339322,
    "popolazione": 1693,
    "provincia_denominazione": "Messina",
    "provincia_sigla": "ME",
    "regione_denominazione": "Sicilia",
    "regione_codice": 19
  },
  {
    "comune_denominazione": "Scaletta Zanclea",
    "comune_codice_istat": "083094",
    "latitudine": 38.045591,
    "longitudine": 15.462916,
    "popolazione": 1916,
    "provincia_denominazione": "Messina",
    "provincia_sigla": "ME",
    "regione_denominazione": "Sicilia",
    "regione_codice": 19
  },
  {
    "comune_denominazione": "Sinagra",
    "comune_codice_istat": "083095",
    "latitudine": 38.083051,
    "longitudine": 14.849338,
    "popolazione": 2552,
    "provincia_denominazione": "Messina",
    "provincia_sigla": "ME",
    "regione_denominazione": "Sicilia",
    "regione_codice": 19
  },
  {
    "comune_denominazione": "Spadafora",
    "comune_codice_istat": "083096",
    "latitudine": 38.223767,
    "longitudine": 15.379286,
    "popolazione": 4793,
    "provincia_denominazione": "Messina",
    "provincia_sigla": "ME",
    "regione_denominazione": "Sicilia",
    "regione_codice": 19
  },
  {
    "comune_denominazione": "Taormina",
    "comune_codice_istat": "083097",
    "latitudine": 37.851792,
    "longitudine": 15.285652,
    "popolazione": 10514,
    "provincia_denominazione": "Messina",
    "provincia_sigla": "ME",
    "regione_denominazione": "Sicilia",
    "regione_codice": 19
  },
  {
    "comune_denominazione": "Torregrotta",
    "comune_codice_istat": "083098",
    "latitudine": 38.191637,
    "longitudine": 15.352439,
    "popolazione": 7215,
    "provincia_denominazione": "Messina",
    "provincia_sigla": "ME",
    "regione_denominazione": "Sicilia",
    "regione_codice": 19
  },
  {
    "comune_denominazione": "Tortorici",
    "comune_codice_istat": "083099",
    "latitudine": 38.030103,
    "longitudine": 14.82419,
    "popolazione": 5952,
    "provincia_denominazione": "Messina",
    "provincia_sigla": "ME",
    "regione_denominazione": "Sicilia",
    "regione_codice": 19
  },
  {
    "comune_denominazione": "Tripi",
    "comune_codice_istat": "083100",
    "latitudine": 38.048625,
    "longitudine": 15.098804,
    "popolazione": 766,
    "provincia_denominazione": "Messina",
    "provincia_sigla": "ME",
    "regione_denominazione": "Sicilia",
    "regione_codice": 19
  },
  {
    "comune_denominazione": "Tusa",
    "comune_codice_istat": "083101",
    "latitudine": 37.983855,
    "longitudine": 14.236065,
    "popolazione": 2703,
    "provincia_denominazione": "Messina",
    "provincia_sigla": "ME",
    "regione_denominazione": "Sicilia",
    "regione_codice": 19
  },
  {
    "comune_denominazione": "Ucria",
    "comune_codice_istat": "083102",
    "latitudine": 38.045919,
    "longitudine": 14.881112,
    "popolazione": 937,
    "provincia_denominazione": "Messina",
    "provincia_sigla": "ME",
    "regione_denominazione": "Sicilia",
    "regione_codice": 19
  },
  {
    "comune_denominazione": "Valdina",
    "comune_codice_istat": "083103",
    "latitudine": 38.193739,
    "longitudine": 15.370704,
    "popolazione": 1298,
    "provincia_denominazione": "Messina",
    "provincia_sigla": "ME",
    "regione_denominazione": "Sicilia",
    "regione_codice": 19
  },
  {
    "comune_denominazione": "Venetico",
    "comune_codice_istat": "083104",
    "latitudine": 38.219944,
    "longitudine": 15.366707,
    "popolazione": 3940,
    "provincia_denominazione": "Messina",
    "provincia_sigla": "ME",
    "regione_denominazione": "Sicilia",
    "regione_codice": 19
  },
  {
    "comune_denominazione": "Villafranca Tirrena",
    "comune_codice_istat": "083105",
    "latitudine": 38.240068,
    "longitudine": 15.437387,
    "popolazione": 8236,
    "provincia_denominazione": "Messina",
    "provincia_sigla": "ME",
    "regione_denominazione": "Sicilia",
    "regione_codice": 19
  },
  {
    "comune_denominazione": "Terme Vigliatore",
    "comune_codice_istat": "083106",
    "latitudine": 38.136764,
    "longitudine": 15.162675,
    "popolazione": 7223,
    "provincia_denominazione": "Messina",
    "provincia_sigla": "ME",
    "regione_denominazione": "Sicilia",
    "regione_codice": 19
  },
  {
    "comune_denominazione": "Acquedolci",
    "comune_codice_istat": "083107",
    "latitudine": 38.05604,
    "longitudine": 14.581901,
    "popolazione": 5493,
    "provincia_denominazione": "Messina",
    "provincia_sigla": "ME",
    "regione_denominazione": "Sicilia",
    "regione_codice": 19
  },
  {
    "comune_denominazione": "Torrenova",
    "comune_codice_istat": "083108",
    "latitudine": 38.089846,
    "longitudine": 14.678879,
    "popolazione": 4495,
    "provincia_denominazione": "Messina",
    "provincia_sigla": "ME",
    "regione_denominazione": "Sicilia",
    "regione_codice": 19
  },
  {
    "comune_denominazione": "Agrigento",
    "comune_codice_istat": "084001",
    "latitudine": 37.312299,
    "longitudine": 13.57465,
    "popolazione": 56045,
    "provincia_denominazione": "Agrigento",
    "provincia_sigla": "AG",
    "regione_denominazione": "Sicilia",
    "regione_codice": 19
  },
  {
    "comune_denominazione": "Alessandria della Rocca",
    "comune_codice_istat": "084002",
    "latitudine": 37.570042,
    "longitudine": 13.454609,
    "popolazione": 2628,
    "provincia_denominazione": "Agrigento",
    "provincia_sigla": "AG",
    "regione_denominazione": "Sicilia",
    "regione_codice": 19
  },
  {
    "comune_denominazione": "Aragona",
    "comune_codice_istat": "084003",
    "latitudine": 37.403199,
    "longitudine": 13.617948,
    "popolazione": 9013,
    "provincia_denominazione": "Agrigento",
    "provincia_sigla": "AG",
    "regione_denominazione": "Sicilia",
    "regione_codice": 19
  },
  {
    "comune_denominazione": "Bivona",
    "comune_codice_istat": "084004",
    "latitudine": 37.617397,
    "longitudine": 13.439769,
    "popolazione": 3349,
    "provincia_denominazione": "Agrigento",
    "provincia_sigla": "AG",
    "regione_denominazione": "Sicilia",
    "regione_codice": 19
  },
  {
    "comune_denominazione": "Burgio",
    "comune_codice_istat": "084005",
    "latitudine": 37.599442,
    "longitudine": 13.29015,
    "popolazione": 2572,
    "provincia_denominazione": "Agrigento",
    "provincia_sigla": "AG",
    "regione_denominazione": "Sicilia",
    "regione_codice": 19
  },
  {
    "comune_denominazione": "Calamonaci",
    "comune_codice_istat": "084006",
    "latitudine": 37.52614,
    "longitudine": 13.289851,
    "popolazione": 1224,
    "provincia_denominazione": "Agrigento",
    "provincia_sigla": "AG",
    "regione_denominazione": "Sicilia",
    "regione_codice": 19
  },
  {
    "comune_denominazione": "Caltabellotta",
    "comune_codice_istat": "084007",
    "latitudine": 37.577341,
    "longitudine": 13.216548,
    "popolazione": 3341,
    "provincia_denominazione": "Agrigento",
    "provincia_sigla": "AG",
    "regione_denominazione": "Sicilia",
    "regione_codice": 19
  },
  {
    "comune_denominazione": "Camastra",
    "comune_codice_istat": "084008",
    "latitudine": 37.252294,
    "longitudine": 13.7936,
    "popolazione": 1960,
    "provincia_denominazione": "Agrigento",
    "provincia_sigla": "AG",
    "regione_denominazione": "Sicilia",
    "regione_codice": 19
  },
  {
    "comune_denominazione": "Cammarata",
    "comune_codice_istat": "084009",
    "latitudine": 37.633825,
    "longitudine": 13.637745,
    "popolazione": 5981,
    "provincia_denominazione": "Agrigento",
    "provincia_sigla": "AG",
    "regione_denominazione": "Sicilia",
    "regione_codice": 19
  },
  {
    "comune_denominazione": "Campobello di Licata",
    "comune_codice_istat": "084010",
    "latitudine": 37.25844,
    "longitudine": 13.918266,
    "popolazione": 9313,
    "provincia_denominazione": "Agrigento",
    "provincia_sigla": "AG",
    "regione_denominazione": "Sicilia",
    "regione_codice": 19
  },
  {
    "comune_denominazione": "Canicattì",
    "comune_codice_istat": "084011",
    "latitudine": 37.358942,
    "longitudine": 13.850364,
    "popolazione": 34990,
    "provincia_denominazione": "Agrigento",
    "provincia_sigla": "AG",
    "regione_denominazione": "Sicilia",
    "regione_codice": 19
  },
  {
    "comune_denominazione": "Casteltermini",
    "comune_codice_istat": "084012",
    "latitudine": 37.540835,
    "longitudine": 13.643187,
    "popolazione": 7528,
    "provincia_denominazione": "Agrigento",
    "provincia_sigla": "AG",
    "regione_denominazione": "Sicilia",
    "regione_codice": 19
  },
  {
    "comune_denominazione": "Castrofilippo",
    "comune_codice_istat": "084013",
    "latitudine": 37.348585,
    "longitudine": 13.750096,
    "popolazione": 2685,
    "provincia_denominazione": "Agrigento",
    "provincia_sigla": "AG",
    "regione_denominazione": "Sicilia",
    "regione_codice": 19
  },
  {
    "comune_denominazione": "Cattolica Eraclea",
    "comune_codice_istat": "084014",
    "latitudine": 37.44084,
    "longitudine": 13.392054,
    "popolazione": 3397,
    "provincia_denominazione": "Agrigento",
    "provincia_sigla": "AG",
    "regione_denominazione": "Sicilia",
    "regione_codice": 19
  },
  {
    "comune_denominazione": "Cianciana",
    "comune_codice_istat": "084015",
    "latitudine": 37.519696,
    "longitudine": 13.43408,
    "popolazione": 3253,
    "provincia_denominazione": "Agrigento",
    "provincia_sigla": "AG",
    "regione_denominazione": "Sicilia",
    "regione_codice": 19
  },
  {
    "comune_denominazione": "Comitini",
    "comune_codice_istat": "084016",
    "latitudine": 37.407941,
    "longitudine": 13.642959,
    "popolazione": 884,
    "provincia_denominazione": "Agrigento",
    "provincia_sigla": "AG",
    "regione_denominazione": "Sicilia",
    "regione_codice": 19
  },
  {
    "comune_denominazione": "Favara",
    "comune_codice_istat": "084017",
    "latitudine": 37.316197,
    "longitudine": 13.662417,
    "popolazione": 32446,
    "provincia_denominazione": "Agrigento",
    "provincia_sigla": "AG",
    "regione_denominazione": "Sicilia",
    "regione_codice": 19
  },
  {
    "comune_denominazione": "Grotte",
    "comune_codice_istat": "084018",
    "latitudine": 37.402853,
    "longitudine": 13.70067,
    "popolazione": 5352,
    "provincia_denominazione": "Agrigento",
    "provincia_sigla": "AG",
    "regione_denominazione": "Sicilia",
    "regione_codice": 19
  },
  {
    "comune_denominazione": "Joppolo Giancaxio",
    "comune_codice_istat": "084019",
    "latitudine": 37.38704,
    "longitudine": 13.555258,
    "popolazione": 1120,
    "provincia_denominazione": "Agrigento",
    "provincia_sigla": "AG",
    "regione_denominazione": "Sicilia",
    "regione_codice": 19
  },
  {
    "comune_denominazione": "Lampedusa e Linosa",
    "comune_codice_istat": "084020",
    "latitudine": 35.511134,
    "longitudine": 12.596291,
    "popolazione": 6373,
    "provincia_denominazione": "Agrigento",
    "provincia_sigla": "AG",
    "regione_denominazione": "Sicilia",
    "regione_codice": 19
  },
  {
    "comune_denominazione": "Licata",
    "comune_codice_istat": "084021",
    "latitudine": 37.101636,
    "longitudine": 13.937615,
    "popolazione": 35189,
    "provincia_denominazione": "Agrigento",
    "provincia_sigla": "AG",
    "regione_denominazione": "Sicilia",
    "regione_codice": 19
  },
  {
    "comune_denominazione": "Lucca Sicula",
    "comune_codice_istat": "084022",
    "latitudine": 37.579049,
    "longitudine": 13.306568,
    "popolazione": 1740,
    "provincia_denominazione": "Agrigento",
    "provincia_sigla": "AG",
    "regione_denominazione": "Sicilia",
    "regione_codice": 19
  },
  {
    "comune_denominazione": "Menfi",
    "comune_codice_istat": "084023",
    "latitudine": 37.606639,
    "longitudine": 12.967843,
    "popolazione": 12009,
    "provincia_denominazione": "Agrigento",
    "provincia_sigla": "AG",
    "regione_denominazione": "Sicilia",
    "regione_codice": 19
  },
  {
    "comune_denominazione": "Montallegro",
    "comune_codice_istat": "084024",
    "latitudine": 37.392939,
    "longitudine": 13.350753,
    "popolazione": 2404,
    "provincia_denominazione": "Agrigento",
    "provincia_sigla": "AG",
    "regione_denominazione": "Sicilia",
    "regione_codice": 19
  },
  {
    "comune_denominazione": "Montevago",
    "comune_codice_istat": "084025",
    "latitudine": 37.702241,
    "longitudine": 12.985842,
    "popolazione": 2778,
    "provincia_denominazione": "Agrigento",
    "provincia_sigla": "AG",
    "regione_denominazione": "Sicilia",
    "regione_codice": 19
  },
  {
    "comune_denominazione": "Naro",
    "comune_codice_istat": "084026",
    "latitudine": 37.29622,
    "longitudine": 13.791567,
    "popolazione": 7155,
    "provincia_denominazione": "Agrigento",
    "provincia_sigla": "AG",
    "regione_denominazione": "Sicilia",
    "regione_codice": 19
  },
  {
    "comune_denominazione": "Palma di Montechiaro",
    "comune_codice_istat": "084027",
    "latitudine": 37.191664,
    "longitudine": 13.763714,
    "popolazione": 21361,
    "provincia_denominazione": "Agrigento",
    "provincia_sigla": "AG",
    "regione_denominazione": "Sicilia",
    "regione_codice": 19
  },
  {
    "comune_denominazione": "Porto Empedocle",
    "comune_codice_istat": "084028",
    "latitudine": 37.288313,
    "longitudine": 13.52755,
    "popolazione": 15818,
    "provincia_denominazione": "Agrigento",
    "provincia_sigla": "AG",
    "regione_denominazione": "Sicilia",
    "regione_codice": 19
  },
  {
    "comune_denominazione": "Racalmuto",
    "comune_codice_istat": "084029",
    "latitudine": 37.40894,
    "longitudine": 13.732402,
    "popolazione": 7694,
    "provincia_denominazione": "Agrigento",
    "provincia_sigla": "AG",
    "regione_denominazione": "Sicilia",
    "regione_codice": 19
  },
  {
    "comune_denominazione": "Raffadali",
    "comune_codice_istat": "084030",
    "latitudine": 37.404053,
    "longitudine": 13.532076,
    "popolazione": 12369,
    "provincia_denominazione": "Agrigento",
    "provincia_sigla": "AG",
    "regione_denominazione": "Sicilia",
    "regione_codice": 19
  },
  {
    "comune_denominazione": "Ravanusa",
    "comune_codice_istat": "084031",
    "latitudine": 37.267914,
    "longitudine": 13.973255,
    "popolazione": 10862,
    "provincia_denominazione": "Agrigento",
    "provincia_sigla": "AG",
    "regione_denominazione": "Sicilia",
    "regione_codice": 19
  },
  {
    "comune_denominazione": "Realmonte",
    "comune_codice_istat": "084032",
    "latitudine": 37.308393,
    "longitudine": 13.461567,
    "popolazione": 4384,
    "provincia_denominazione": "Agrigento",
    "provincia_sigla": "AG",
    "regione_denominazione": "Sicilia",
    "regione_codice": 19
  },
  {
    "comune_denominazione": "Ribera",
    "comune_codice_istat": "084033",
    "latitudine": 37.502787,
    "longitudine": 13.266188,
    "popolazione": 17953,
    "provincia_denominazione": "Agrigento",
    "provincia_sigla": "AG",
    "regione_denominazione": "Sicilia",
    "regione_codice": 19
  },
  {
    "comune_denominazione": "Sambuca di Sicilia",
    "comune_codice_istat": "084034",
    "latitudine": 37.64774,
    "longitudine": 13.111031,
    "popolazione": 5545,
    "provincia_denominazione": "Agrigento",
    "provincia_sigla": "AG",
    "regione_denominazione": "Sicilia",
    "regione_codice": 19
  },
  {
    "comune_denominazione": "San Biagio Platani",
    "comune_codice_istat": "084035",
    "latitudine": 37.509014,
    "longitudine": 13.524282,
    "popolazione": 2977,
    "provincia_denominazione": "Agrigento",
    "provincia_sigla": "AG",
    "regione_denominazione": "Sicilia",
    "regione_codice": 19
  },
  {
    "comune_denominazione": "San Giovanni Gemini",
    "comune_codice_istat": "084036",
    "latitudine": 37.629936,
    "longitudine": 13.641375,
    "popolazione": 7714,
    "provincia_denominazione": "Agrigento",
    "provincia_sigla": "AG",
    "regione_denominazione": "Sicilia",
    "regione_codice": 19
  },
  {
    "comune_denominazione": "Santa Elisabetta",
    "comune_codice_istat": "084037",
    "latitudine": 37.43246,
    "longitudine": 13.556235,
    "popolazione": 2179,
    "provincia_denominazione": "Agrigento",
    "provincia_sigla": "AG",
    "regione_denominazione": "Sicilia",
    "regione_codice": 19
  },
  {
    "comune_denominazione": "Santa Margherita di Belice",
    "comune_codice_istat": "084038",
    "latitudine": 37.691841,
    "longitudine": 13.020143,
    "popolazione": 6187,
    "provincia_denominazione": "Agrigento",
    "provincia_sigla": "AG",
    "regione_denominazione": "Sicilia",
    "regione_codice": 19
  },
  {
    "comune_denominazione": "Sant'Angelo Muxaro",
    "comune_codice_istat": "084039",
    "latitudine": 37.479015,
    "longitudine": 13.544316,
    "popolazione": 1191,
    "provincia_denominazione": "Agrigento",
    "provincia_sigla": "AG",
    "regione_denominazione": "Sicilia",
    "regione_codice": 19
  },
  {
    "comune_denominazione": "Santo Stefano Quisquina",
    "comune_codice_istat": "084040",
    "latitudine": 37.625027,
    "longitudine": 13.49076,
    "popolazione": 4237,
    "provincia_denominazione": "Agrigento",
    "provincia_sigla": "AG",
    "regione_denominazione": "Sicilia",
    "regione_codice": 19
  },
  {
    "comune_denominazione": "Sciacca",
    "comune_codice_istat": "084041",
    "latitudine": 37.506479,
    "longitudine": 13.082332,
    "popolazione": 39078,
    "provincia_denominazione": "Agrigento",
    "provincia_sigla": "AG",
    "regione_denominazione": "Sicilia",
    "regione_codice": 19
  },
  {
    "comune_denominazione": "Siculiana",
    "comune_codice_istat": "084042",
    "latitudine": 37.338086,
    "longitudine": 13.421996,
    "popolazione": 4210,
    "provincia_denominazione": "Agrigento",
    "provincia_sigla": "AG",
    "regione_denominazione": "Sicilia",
    "regione_codice": 19
  },
  {
    "comune_denominazione": "Villafranca Sicula",
    "comune_codice_istat": "084043",
    "latitudine": 37.588141,
    "longitudine": 13.28925,
    "popolazione": 1359,
    "provincia_denominazione": "Agrigento",
    "provincia_sigla": "AG",
    "regione_denominazione": "Sicilia",
    "regione_codice": 19
  },
  {
    "comune_denominazione": "Acquaviva Platani",
    "comune_codice_istat": "085001",
    "latitudine": 37.571999,
    "longitudine": 13.702891,
    "popolazione": 881,
    "provincia_denominazione": "Caltanissetta",
    "provincia_sigla": "CL",
    "regione_denominazione": "Sicilia",
    "regione_codice": 19
  },
  {
    "comune_denominazione": "Bompensiere",
    "comune_codice_istat": "085002",
    "latitudine": 37.473829,
    "longitudine": 13.780745,
    "popolazione": 512,
    "provincia_denominazione": "Caltanissetta",
    "provincia_sigla": "CL",
    "regione_denominazione": "Sicilia",
    "regione_codice": 19
  },
  {
    "comune_denominazione": "Butera",
    "comune_codice_istat": "085003",
    "latitudine": 37.190354,
    "longitudine": 14.183489,
    "popolazione": 4284,
    "provincia_denominazione": "Caltanissetta",
    "provincia_sigla": "CL",
    "regione_denominazione": "Sicilia",
    "regione_codice": 19
  },
  {
    "comune_denominazione": "Caltanissetta",
    "comune_codice_istat": "085004",
    "latitudine": 37.489941,
    "longitudine": 14.063162,
    "popolazione": 59425,
    "provincia_denominazione": "Caltanissetta",
    "provincia_sigla": "CL",
    "regione_denominazione": "Sicilia",
    "regione_codice": 19
  },
  {
    "comune_denominazione": "Campofranco",
    "comune_codice_istat": "085005",
    "latitudine": 37.510479,
    "longitudine": 13.711044,
    "popolazione": 2781,
    "provincia_denominazione": "Caltanissetta",
    "provincia_sigla": "CL",
    "regione_denominazione": "Sicilia",
    "regione_codice": 19
  },
  {
    "comune_denominazione": "Delia",
    "comune_codice_istat": "085006",
    "latitudine": 37.356036,
    "longitudine": 13.927289,
    "popolazione": 3942,
    "provincia_denominazione": "Caltanissetta",
    "provincia_sigla": "CL",
    "regione_denominazione": "Sicilia",
    "regione_codice": 19
  },
  {
    "comune_denominazione": "Gela",
    "comune_codice_istat": "085007",
    "latitudine": 37.066436,
    "longitudine": 14.250244,
    "popolazione": 71535,
    "provincia_denominazione": "Caltanissetta",
    "provincia_sigla": "CL",
    "regione_denominazione": "Sicilia",
    "regione_codice": 19
  },
  {
    "comune_denominazione": "Marianopoli",
    "comune_codice_istat": "085008",
    "latitudine": 37.597446,
    "longitudine": 13.915763,
    "popolazione": 1675,
    "provincia_denominazione": "Caltanissetta",
    "provincia_sigla": "CL",
    "regione_denominazione": "Sicilia",
    "regione_codice": 19
  },
  {
    "comune_denominazione": "Mazzarino",
    "comune_codice_istat": "085009",
    "latitudine": 37.305024,
    "longitudine": 14.214078,
    "popolazione": 11186,
    "provincia_denominazione": "Caltanissetta",
    "provincia_sigla": "CL",
    "regione_denominazione": "Sicilia",
    "regione_codice": 19
  },
  {
    "comune_denominazione": "Milena",
    "comune_codice_istat": "085010",
    "latitudine": 37.471521,
    "longitudine": 13.736437,
    "popolazione": 2799,
    "provincia_denominazione": "Caltanissetta",
    "provincia_sigla": "CL",
    "regione_denominazione": "Sicilia",
    "regione_codice": 19
  },
  {
    "comune_denominazione": "Montedoro",
    "comune_codice_istat": "085011",
    "latitudine": 37.453508,
    "longitudine": 13.816238,
    "popolazione": 1438,
    "provincia_denominazione": "Caltanissetta",
    "provincia_sigla": "CL",
    "regione_denominazione": "Sicilia",
    "regione_codice": 19
  },
  {
    "comune_denominazione": "Mussomeli",
    "comune_codice_istat": "085012",
    "latitudine": 37.577845,
    "longitudine": 13.751259,
    "popolazione": 10111,
    "provincia_denominazione": "Caltanissetta",
    "provincia_sigla": "CL",
    "regione_denominazione": "Sicilia",
    "regione_codice": 19
  },
  {
    "comune_denominazione": "Niscemi",
    "comune_codice_istat": "085013",
    "latitudine": 37.14645,
    "longitudine": 14.39418,
    "popolazione": 25603,
    "provincia_denominazione": "Caltanissetta",
    "provincia_sigla": "CL",
    "regione_denominazione": "Sicilia",
    "regione_codice": 19
  },
  {
    "comune_denominazione": "Resuttano",
    "comune_codice_istat": "085014",
    "latitudine": 37.678648,
    "longitudine": 14.029464,
    "popolazione": 1823,
    "provincia_denominazione": "Caltanissetta",
    "provincia_sigla": "CL",
    "regione_denominazione": "Sicilia",
    "regione_codice": 19
  },
  {
    "comune_denominazione": "Riesi",
    "comune_codice_istat": "085015",
    "latitudine": 37.281961,
    "longitudine": 14.082414,
    "popolazione": 10854,
    "provincia_denominazione": "Caltanissetta",
    "provincia_sigla": "CL",
    "regione_denominazione": "Sicilia",
    "regione_codice": 19
  },
  {
    "comune_denominazione": "San Cataldo",
    "comune_codice_istat": "085016",
    "latitudine": 37.491446,
    "longitudine": 13.993516,
    "popolazione": 20812,
    "provincia_denominazione": "Caltanissetta",
    "provincia_sigla": "CL",
    "regione_denominazione": "Sicilia",
    "regione_codice": 19
  },
  {
    "comune_denominazione": "Santa Caterina Villarmosa",
    "comune_codice_istat": "085017",
    "latitudine": 37.591147,
    "longitudine": 14.036265,
    "popolazione": 4904,
    "provincia_denominazione": "Caltanissetta",
    "provincia_sigla": "CL",
    "regione_denominazione": "Sicilia",
    "regione_codice": 19
  },
  {
    "comune_denominazione": "Serradifalco",
    "comune_codice_istat": "085018",
    "latitudine": 37.453843,
    "longitudine": 13.880463,
    "popolazione": 5701,
    "provincia_denominazione": "Caltanissetta",
    "provincia_sigla": "CL",
    "regione_denominazione": "Sicilia",
    "regione_codice": 19
  },
  {
    "comune_denominazione": "Sommatino",
    "comune_codice_istat": "085019",
    "latitudine": 37.334022,
    "longitudine": 13.992959,
    "popolazione": 6570,
    "provincia_denominazione": "Caltanissetta",
    "provincia_sigla": "CL",
    "regione_denominazione": "Sicilia",
    "regione_codice": 19
  },
  {
    "comune_denominazione": "Sutera",
    "comune_codice_istat": "085020",
    "latitudine": 37.525228,
    "longitudine": 13.731316,
    "popolazione": 1240,
    "provincia_denominazione": "Caltanissetta",
    "provincia_sigla": "CL",
    "regione_denominazione": "Sicilia",
    "regione_codice": 19
  },
  {
    "comune_denominazione": "Vallelunga Pratameno",
    "comune_codice_istat": "085021",
    "latitudine": 37.682047,
    "longitudine": 13.83156,
    "popolazione": 3238,
    "provincia_denominazione": "Caltanissetta",
    "provincia_sigla": "CL",
    "regione_denominazione": "Sicilia",
    "regione_codice": 19
  },
  {
    "comune_denominazione": "Villalba",
    "comune_codice_istat": "085022",
    "latitudine": 37.654142,
    "longitudine": 13.843423,
    "popolazione": 1489,
    "provincia_denominazione": "Caltanissetta",
    "provincia_sigla": "CL",
    "regione_denominazione": "Sicilia",
    "regione_codice": 19
  },
  {
    "comune_denominazione": "Agira",
    "comune_codice_istat": "086001",
    "latitudine": 37.656151,
    "longitudine": 14.521575,
    "popolazione": 7799,
    "provincia_denominazione": "Enna",
    "provincia_sigla": "EN",
    "regione_denominazione": "Sicilia",
    "regione_codice": 19
  },
  {
    "comune_denominazione": "Aidone",
    "comune_codice_istat": "086002",
    "latitudine": 37.415421,
    "longitudine": 14.445276,
    "popolazione": 4487,
    "provincia_denominazione": "Enna",
    "provincia_sigla": "EN",
    "regione_denominazione": "Sicilia",
    "regione_codice": 19
  },
  {
    "comune_denominazione": "Assoro",
    "comune_codice_istat": "086003",
    "latitudine": 37.627905,
    "longitudine": 14.423886,
    "popolazione": 4906,
    "provincia_denominazione": "Enna",
    "provincia_sigla": "EN",
    "regione_denominazione": "Sicilia",
    "regione_codice": 19
  },
  {
    "comune_denominazione": "Barrafranca",
    "comune_codice_istat": "086004",
    "latitudine": 37.372843,
    "longitudine": 14.203313,
    "popolazione": 11947,
    "provincia_denominazione": "Enna",
    "provincia_sigla": "EN",
    "regione_denominazione": "Sicilia",
    "regione_codice": 19
  },
  {
    "comune_denominazione": "Calascibetta",
    "comune_codice_istat": "086005",
    "latitudine": 37.590191,
    "longitudine": 14.271972,
    "popolazione": 4158,
    "provincia_denominazione": "Enna",
    "provincia_sigla": "EN",
    "regione_denominazione": "Sicilia",
    "regione_codice": 19
  },
  {
    "comune_denominazione": "Catenanuova",
    "comune_codice_istat": "086006",
    "latitudine": 37.567971,
    "longitudine": 14.691819,
    "popolazione": 4578,
    "provincia_denominazione": "Enna",
    "provincia_sigla": "EN",
    "regione_denominazione": "Sicilia",
    "regione_codice": 19
  },
  {
    "comune_denominazione": "Centuripe",
    "comune_codice_istat": "086007",
    "latitudine": 37.622952,
    "longitudine": 14.739079,
    "popolazione": 5183,
    "provincia_denominazione": "Enna",
    "provincia_sigla": "EN",
    "regione_denominazione": "Sicilia",
    "regione_codice": 19
  },
  {
    "comune_denominazione": "Cerami",
    "comune_codice_istat": "086008",
    "latitudine": 37.810654,
    "longitudine": 14.507273,
    "popolazione": 1866,
    "provincia_denominazione": "Enna",
    "provincia_sigla": "EN",
    "regione_denominazione": "Sicilia",
    "regione_codice": 19
  },
  {
    "comune_denominazione": "Enna",
    "comune_codice_istat": "086009",
    "latitudine": 37.566757,
    "longitudine": 14.280747,
    "popolazione": 26030,
    "provincia_denominazione": "Enna",
    "provincia_sigla": "EN",
    "regione_denominazione": "Sicilia",
    "regione_codice": 19
  },
  {
    "comune_denominazione": "Gagliano Castelferrato",
    "comune_codice_istat": "086010",
    "latitudine": 37.71139,
    "longitudine": 14.536661,
    "popolazione": 3413,
    "provincia_denominazione": "Enna",
    "provincia_sigla": "EN",
    "regione_denominazione": "Sicilia",
    "regione_codice": 19
  },
  {
    "comune_denominazione": "Leonforte",
    "comune_codice_istat": "086011",
    "latitudine": 37.639212,
    "longitudine": 14.392427,
    "popolazione": 12679,
    "provincia_denominazione": "Enna",
    "provincia_sigla": "EN",
    "regione_denominazione": "Sicilia",
    "regione_codice": 19
  },
  {
    "comune_denominazione": "Nicosia",
    "comune_codice_istat": "086012",
    "latitudine": 37.747452,
    "longitudine": 14.397271,
    "popolazione": 13054,
    "provincia_denominazione": "Enna",
    "provincia_sigla": "EN",
    "regione_denominazione": "Sicilia",
    "regione_codice": 19
  },
  {
    "comune_denominazione": "Nissoria",
    "comune_codice_istat": "086013",
    "latitudine": 37.655277,
    "longitudine": 14.449468,
    "popolazione": 2884,
    "provincia_denominazione": "Enna",
    "provincia_sigla": "EN",
    "regione_denominazione": "Sicilia",
    "regione_codice": 19
  },
  {
    "comune_denominazione": "Piazza Armerina",
    "comune_codice_istat": "086014",
    "latitudine": 37.385946,
    "longitudine": 14.367174,
    "popolazione": 20842,
    "provincia_denominazione": "Enna",
    "provincia_sigla": "EN",
    "regione_denominazione": "Sicilia",
    "regione_codice": 19
  },
  {
    "comune_denominazione": "Pietraperzia",
    "comune_codice_istat": "086015",
    "latitudine": 37.421564,
    "longitudine": 14.137026,
    "popolazione": 6472,
    "provincia_denominazione": "Enna",
    "provincia_sigla": "EN",
    "regione_denominazione": "Sicilia",
    "regione_codice": 19
  },
  {
    "comune_denominazione": "Regalbuto",
    "comune_codice_istat": "086016",
    "latitudine": 37.653547,
    "longitudine": 14.639636,
    "popolazione": 6814,
    "provincia_denominazione": "Enna",
    "provincia_sigla": "EN",
    "regione_denominazione": "Sicilia",
    "regione_codice": 19
  },
  {
    "comune_denominazione": "Sperlinga",
    "comune_codice_istat": "086017",
    "latitudine": 37.765519,
    "longitudine": 14.351626,
    "popolazione": 684,
    "provincia_denominazione": "Enna",
    "provincia_sigla": "EN",
    "regione_denominazione": "Sicilia",
    "regione_codice": 19
  },
  {
    "comune_denominazione": "Troina",
    "comune_codice_istat": "086018",
    "latitudine": 37.785354,
    "longitudine": 14.598475,
    "popolazione": 8778,
    "provincia_denominazione": "Enna",
    "provincia_sigla": "EN",
    "regione_denominazione": "Sicilia",
    "regione_codice": 19
  },
  {
    "comune_denominazione": "Valguarnera Caropepe",
    "comune_codice_istat": "086019",
    "latitudine": 37.49542,
    "longitudine": 14.390791,
    "popolazione": 7161,
    "provincia_denominazione": "Enna",
    "provincia_sigla": "EN",
    "regione_denominazione": "Sicilia",
    "regione_codice": 19
  },
  {
    "comune_denominazione": "Villarosa",
    "comune_codice_istat": "086020",
    "latitudine": 37.587017,
    "longitudine": 14.173589,
    "popolazione": 4448,
    "provincia_denominazione": "Enna",
    "provincia_sigla": "EN",
    "regione_denominazione": "Sicilia",
    "regione_codice": 19
  },
  {
    "comune_denominazione": "Aci Bonaccorsi",
    "comune_codice_istat": "087001",
    "latitudine": 37.597687,
    "longitudine": 15.107937,
    "popolazione": 3560,
    "provincia_denominazione": "Catania",
    "provincia_sigla": "CT",
    "regione_denominazione": "Sicilia",
    "regione_codice": 19
  },
  {
    "comune_denominazione": "Aci Castello",
    "comune_codice_istat": "087002",
    "latitudine": 37.554211,
    "longitudine": 15.14856,
    "popolazione": 17618,
    "provincia_denominazione": "Catania",
    "provincia_sigla": "CT",
    "regione_denominazione": "Sicilia",
    "regione_codice": 19
  },
  {
    "comune_denominazione": "Aci Catena",
    "comune_codice_istat": "087003",
    "latitudine": 37.60257,
    "longitudine": 15.14196,
    "popolazione": 27620,
    "provincia_denominazione": "Catania",
    "provincia_sigla": "CT",
    "regione_denominazione": "Sicilia",
    "regione_codice": 19
  },
  {
    "comune_denominazione": "Acireale",
    "comune_codice_istat": "087004",
    "latitudine": 37.612777,
    "longitudine": 15.16588,
    "popolazione": 50744,
    "provincia_denominazione": "Catania",
    "provincia_sigla": "CT",
    "regione_denominazione": "Sicilia",
    "regione_codice": 19
  },
  {
    "comune_denominazione": "Aci Sant'Antonio",
    "comune_codice_istat": "087005",
    "latitudine": 37.606392,
    "longitudine": 15.126895,
    "popolazione": 17882,
    "provincia_denominazione": "Catania",
    "provincia_sigla": "CT",
    "regione_denominazione": "Sicilia",
    "regione_codice": 19
  },
  {
    "comune_denominazione": "Adrano",
    "comune_codice_istat": "087006",
    "latitudine": 37.661777,
    "longitudine": 14.833099,
    "popolazione": 33788,
    "provincia_denominazione": "Catania",
    "provincia_sigla": "CT",
    "regione_denominazione": "Sicilia",
    "regione_codice": 19
  },
  {
    "comune_denominazione": "Belpasso",
    "comune_codice_istat": "087007",
    "latitudine": 37.589187,
    "longitudine": 14.978239,
    "popolazione": 27498,
    "provincia_denominazione": "Catania",
    "provincia_sigla": "CT",
    "regione_denominazione": "Sicilia",
    "regione_codice": 19
  },
  {
    "comune_denominazione": "Biancavilla",
    "comune_codice_istat": "087008",
    "latitudine": 37.646276,
    "longitudine": 14.861411,
    "popolazione": 22938,
    "provincia_denominazione": "Catania",
    "provincia_sigla": "CT",
    "regione_denominazione": "Sicilia",
    "regione_codice": 19
  },
  {
    "comune_denominazione": "Bronte",
    "comune_codice_istat": "087009",
    "latitudine": 37.78716,
    "longitudine": 14.833845,
    "popolazione": 18429,
    "provincia_denominazione": "Catania",
    "provincia_sigla": "CT",
    "regione_denominazione": "Sicilia",
    "regione_codice": 19
  },
  {
    "comune_denominazione": "Calatabiano",
    "comune_codice_istat": "087010",
    "latitudine": 37.822445,
    "longitudine": 15.227636,
    "popolazione": 5147,
    "provincia_denominazione": "Catania",
    "provincia_sigla": "CT",
    "regione_denominazione": "Sicilia",
    "regione_codice": 19
  },
  {
    "comune_denominazione": "Caltagirone",
    "comune_codice_istat": "087011",
    "latitudine": 37.237201,
    "longitudine": 14.513202,
    "popolazione": 35758,
    "provincia_denominazione": "Catania",
    "provincia_sigla": "CT",
    "regione_denominazione": "Sicilia",
    "regione_codice": 19
  },
  {
    "comune_denominazione": "Camporotondo Etneo",
    "comune_codice_istat": "087012",
    "latitudine": 37.56759,
    "longitudine": 15.005131,
    "popolazione": 5105,
    "provincia_denominazione": "Catania",
    "provincia_sigla": "CT",
    "regione_denominazione": "Sicilia",
    "regione_codice": 19
  },
  {
    "comune_denominazione": "Castel di Iudica",
    "comune_codice_istat": "087013",
    "latitudine": 37.494173,
    "longitudine": 14.649715,
    "popolazione": 4373,
    "provincia_denominazione": "Catania",
    "provincia_sigla": "CT",
    "regione_denominazione": "Sicilia",
    "regione_codice": 19
  },
  {
    "comune_denominazione": "Castiglione di Sicilia",
    "comune_codice_istat": "087014",
    "latitudine": 37.882761,
    "longitudine": 15.122225,
    "popolazione": 3007,
    "provincia_denominazione": "Catania",
    "provincia_sigla": "CT",
    "regione_denominazione": "Sicilia",
    "regione_codice": 19
  },
  {
    "comune_denominazione": "Catania",
    "comune_codice_istat": "087015",
    "latitudine": 37.502236,
    "longitudine": 15.08738,
    "popolazione": 294298,
    "provincia_denominazione": "Catania",
    "provincia_sigla": "CT",
    "regione_denominazione": "Sicilia",
    "regione_codice": 19
  },
  {
    "comune_denominazione": "Fiumefreddo di Sicilia",
    "comune_codice_istat": "087016",
    "latitudine": 37.792355,
    "longitudine": 15.206946,
    "popolazione": 9119,
    "provincia_denominazione": "Catania",
    "provincia_sigla": "CT",
    "regione_denominazione": "Sicilia",
    "regione_codice": 19
  },
  {
    "comune_denominazione": "Giarre",
    "comune_codice_istat": "087017",
    "latitudine": 37.726857,
    "longitudine": 15.187688,
    "popolazione": 26588,
    "provincia_denominazione": "Catania",
    "provincia_sigla": "CT",
    "regione_denominazione": "Sicilia",
    "regione_codice": 19
  },
  {
    "comune_denominazione": "Grammichele",
    "comune_codice_istat": "087018",
    "latitudine": 37.214682,
    "longitudine": 14.636542,
    "popolazione": 12773,
    "provincia_denominazione": "Catania",
    "provincia_sigla": "CT",
    "regione_denominazione": "Sicilia",
    "regione_codice": 19
  },
  {
    "comune_denominazione": "Gravina di Catania",
    "comune_codice_istat": "087019",
    "latitudine": 37.560369,
    "longitudine": 15.061763,
    "popolazione": 25116,
    "provincia_denominazione": "Catania",
    "provincia_sigla": "CT",
    "regione_denominazione": "Sicilia",
    "regione_codice": 19
  },
  {
    "comune_denominazione": "Licodia Eubea",
    "comune_codice_istat": "087020",
    "latitudine": 37.157144,
    "longitudine": 14.706084,
    "popolazione": 2962,
    "provincia_denominazione": "Catania",
    "provincia_sigla": "CT",
    "regione_denominazione": "Sicilia",
    "regione_codice": 19
  },
  {
    "comune_denominazione": "Linguaglossa",
    "comune_codice_istat": "087021",
    "latitudine": 37.842643,
    "longitudine": 15.142131,
    "popolazione": 5094,
    "provincia_denominazione": "Catania",
    "provincia_sigla": "CT",
    "regione_denominazione": "Sicilia",
    "regione_codice": 19
  },
  {
    "comune_denominazione": "Maletto",
    "comune_codice_istat": "087022",
    "latitudine": 37.829022,
    "longitudine": 14.865664,
    "popolazione": 3660,
    "provincia_denominazione": "Catania",
    "provincia_sigla": "CT",
    "regione_denominazione": "Sicilia",
    "regione_codice": 19
  },
  {
    "comune_denominazione": "Mascali",
    "comune_codice_istat": "087023",
    "latitudine": 37.760285,
    "longitudine": 15.197431,
    "popolazione": 13895,
    "provincia_denominazione": "Catania",
    "provincia_sigla": "CT",
    "regione_denominazione": "Sicilia",
    "regione_codice": 19
  },
  {
    "comune_denominazione": "Mascalucia",
    "comune_codice_istat": "087024",
    "latitudine": 37.573605,
    "longitudine": 15.051727,
    "popolazione": 30919,
    "provincia_denominazione": "Catania",
    "provincia_sigla": "CT",
    "regione_denominazione": "Sicilia",
    "regione_codice": 19
  },